[{"lat":"34.036882","lng":"-118.259904","id":3664247,"name":"ABCD STORES","phone":"(213) 222-2222","web":"http://www.example.com","address":"1234 Main Street","country":"United States of America","city":"CA","postal":"91111"},{"lat":"-6.304737","lng":"106.643371","id":3664248,"name":"AEON Department Store","phone":"+62 21 5882802","web":"http://www.lagirl.co.id","address":"Aeon Mall Bsd City, 1F Floor","address2":"Jl. Bsd Raya Utama, Pagedangan","country":"Indonesia","city":"Banten","postal":"15345"},{"lat":"-30.033686","lng":"30.900319","id":3664249,"name":"Amanzimtoti Pharmacy Galleria","address":"Shop G25, Galleria Shopping Centre, Cnr. Mosskolnic & N2,","country":"South Africa","postal":"4126"},{"lat":"-26.129916","lng":"28.062883","id":3664250,"name":"Athol Oaklands Pharmacy Bluebird","address":"Shop 1, Bluebird Shopping Centre, Cnr. Athol Oaklands & Main Road,","country":"South Africa","postal":"2196"},{"lat":"-29.5261","lng":"31.201396","id":3664251,"name":"Ballito Pharmacy - Ballito Junction","address":"Shop G1, Ballito Junction, Leonora Drive,","country":"South Africa","postal":"4420"},{"lat":"-33.821994","lng":"18.487551","id":3664252,"name":"Bayside Pharmacy Tableview","address":"Shop E2-E3, Bayside Shopping Centre, Corner Blouberg & West Coast Road,","country":"South Africa","city":"Western Cape","postal":"7441"},{"lat":"-33.95166","lng":"25.457555","id":3664253,"name":"Baywest Mall Pharmacy - Port Elizabeth","address":"Shop Lg05, Baywest Mall, 100 Baywest Boulevard","country":"South Africa","postal":"6017"},{"lat":"-26.188639","lng":"28.123758","id":3664254,"name":"Bedford Square - Bedfordview","address":"Shop G6&7, Bedford Square, Cnr. Van Der Linde & Smith Roads, Bedford Gardens,","country":"South Africa","city":"Gauteng","postal":"2007"},{"lat":"-26.09964","lng":"28.047118","id":3664255,"name":"Benmore Pharmacy - Sandton","address":"Shop G14, Benmore Gardens Shopping Centre, Cnr Grayston & Benmor","country":"South Africa","postal":"2010"},{"lat":"-29.101614","lng":"26.197058","id":3664256,"name":"Bloemfontein Pharmacy - Northridge Mall","address":"Shop 68, Northridge Mall, Eeufees Road, Helicon Heights","country":"South Africa","postal":"9300"},{"lat":"-34.063584","lng":"18.442842","id":3664257,"name":"Blue Route Pharmacy - Tokai","address":"Shop F206, Blue Route Mall, 16 Tokai Road,","country":"South Africa","city":"Western Cape","postal":"7945"},{"lat":"-26.180628","lng":"28.246385","id":3664258,"name":"Boksburg North Pharmacy - Northrand Rd.","address":"Shop11, Northrand Road Centre, Cnr Fire Station & Northrand Road,","country":"South Africa","postal":"1461"},{"lat":"48.9566","lng":"2.5422","id":3664259,"name":"OFFICIAL L.A. GIRL STORE - FRANCE","web":"https://www.auchan.fr/","address":"Boulevard Robert Ballanger","country":"France, French Republic","postal":"93420"},{"lat":"-26.327764","lng":"28.096633","id":3664260,"name":"Bracken Gardens Pharmacy - Alberton, GP","address":"119 Hennie Alberts Street, Bracken Gardens Shopping Centre, Cnr Delphinium Street,","country":"South Africa","postal":"1449"},{"lat":"-25.771046","lng":"28.232689","id":3664261,"name":"Brooklyn Mall Pharmacy","address":"Shop 14A, Brooklyn Mall, 338 Bronkhorst St, New Muckleneuk,","country":"South Africa","postal":"181"},{"lat":"-33.892081","lng":"18.509253","id":3664262,"name":"Canal Walk Pharmacy - Century City","address":"Shop 41, Canal Walk Shopping Centre,","country":"South Africa","city":"Western Cape","postal":"7441"},{"lat":"-33.852662","lng":"18.694708","id":3664263,"name":"Cape Gate Pharmacy","address":"Shop L49, Cape Gate Shopping Precinct Centre, Cnr Okavango & De Bron Road,","country":"South Africa"},{"lat":"-33.950246","lng":"25.517904","id":3664264,"name":"Cape Road Pharmacy - Newton Park","address":"289 Cape Road,","country":"South Africa","postal":"6045"},{"lat":"-25.979432","lng":"28.115053","id":3664265,"name":"Carlswald Pharmacy - Midrand","address":"Shop 39, Carlswald Lifestyle Centre, Corner Lever  & New Road,","country":"South Africa","postal":"1685"},{"lat":"-26.251112","lng":"28.317309","id":3664266,"name":"Carnival Mall Pharmacy - Brakpan","address":"Shop 161, Carnival Mall, Corner Airport & Heidelberg Rd,","country":"South Africa","postal":"1541"},{"lat":"-33.887451","lng":"18.509659","id":3664267,"name":"Central Park Pharmacy - Cape Town","address":"Building No.5, Intercare Day Hospital, 3 Park Close, Central Park","country":"South Africa","city":"Western Cape"},{"lat":"-25.856358","lng":"28.1857","id":3664268,"name":"Centurion Lake Mall Pharmacy","address":"Shop 207F, Centurion Lake Mall, Heuwel Ave,","country":"South Africa","postal":"157"},{"lat":"-33.980378","lng":"18.462747","id":3664269,"name":"Claremont Cape Pharmacy - (Cavendish)","address":"Shop G1, Standard Bank Galleria,","country":"South Africa","city":"Western Cape","postal":"7708"},{"lat":"-26.127588","lng":"27.902842","id":3664270,"name":"Clearwater Mall Pharmacy - Strubensvalley","address":"Shop 32, Clearwater Mall,Cnr Hendrik Potgieter & Christiaan De Wet,","country":"South Africa","postal":"1724"},{"lat":"46.521116","lng":"6.62831","id":3664271,"name":"COSMETICS OBSESSION","web":"http://www.cosmeticsobsession.com","address":"Voie Du Chariot 5","country":"Switzerland, Swiss Confederation","city":"Vaud","postal":"1003"},{"lat":"46.233832","lng":"7.356492","id":3664272,"name":"COSMETICS OBSESSION","web":"http://www.cosmeticsobsession.com","address":"Galerie Sedunoises Avenue De La Gare","country":"Switzerland, Swiss Confederation","city":"Valais","postal":"1950"},{"lat":"-26.061615","lng":"27.836444","id":3664273,"name":"Cradlestone Pharmacy - Roodekrans","address":"Shop U47, Cradlestone Mall, Corner Furrow And Hendrik Potgieter Road, Roodekrans,","country":"South Africa","city":"Gauteng","postal":"1724"},{"lat":"-26.061615","lng":"27.836444","id":3664274,"name":"Cresta Pharmacy - Randburg","address":"Shop Bl04, Cresta Regional Shopping Centre, Corner Beyers Naude Drive And Weltevreden Road, Extension 4, Cresta,","country":"South Africa","postal":"2195"},{"lat":"40.754585","lng":"-73.988717","id":3664275,"name":"CVS Pharmacy # 10826","phone":"212-221-3844","web":"http://www.cvs.com","address":"1440 Broadway","country":"United States of America","city":"NY","postal":"11018"},{"lat":"40.801861","lng":"-74.48119","id":3664276,"name":"CVS Pharmacy # 10001","web":"http://www.cvs.com","address":"117 Speedwell Ave","country":"United States of America","city":"NJ","postal":"7960"},{"lat":"32.399142","lng":"-110.955128","id":3664277,"name":"CVS Pharmacy # 10006","phone":"520-544-5544","web":"http://www.cvs.com","address":"10650 North Oracle Rd","country":"United States of America","city":"AZ","postal":"85737"},{"lat":"33.758503","lng":"-118.112758","id":3664278,"name":"CVS Pharmacy # 10008","phone":"562-430-6481","web":"http://www.cvs.com","address":"6265 East 2Nd St.","country":"United States of America","city":"CA","postal":"90803"},{"lat":"41.4459","lng":"-74.4229","id":3664279,"name":"CVS Pharmacy # 10009","phone":"845-344-6215","web":"http://www.cvs.com","address":"399 Route 211E","country":"United States of America","city":"New York","postal":"10940"},{"lat":"36.118982","lng":"-95.850807","id":3664280,"name":"CVS Pharmacy # 10012","phone":"918-622-3563","web":"http://www.cvs.com","address":"11223 East 31St St. South","country":"United States of America","city":"OK","postal":"74146"},{"lat":"36.773345","lng":"-76.323641","id":3664281,"name":"CVS Pharmacy # 10013","phone":"757-558-9830","web":"http://www.cvs.com","address":"2981 South Military Highway","country":"United States of America","city":"VA","postal":"23323"},{"lat":"33.173472","lng":"-96.496605","id":3664282,"name":"CVS Pharmacy # 10016","phone":"972-736-2259","web":"http://www.cvs.com","address":"311 E. Princeton Dr.","country":"United States of America","city":"TX","postal":"75407"},{"lat":"33.4251","lng":"-94.0477","id":3664283,"name":"CVS Pharmacy # 10019","phone":"870-772-0236","web":"http://www.cvs.com","address":"3908 N. Stateline Ave.","country":"United States of America","city":"Texas","postal":"71854"},{"lat":"32.332141","lng":"-90.311673","id":3664284,"name":"CVS Pharmacy # 10020","phone":"601-924-2111","web":"http://www.cvs.com","address":"801 Hwy 80 E","country":"United States of America","city":"MS","postal":"39056"},{"lat":"36.879389","lng":"-76.302571","id":3664285,"name":"CVS Pharmacy # 10021","web":"http://www.cvs.com","address":"3717 Hampton Blvd.","country":"United States of America","city":"VA","postal":"23508"},{"lat":"33.813949","lng":"-118.298835","id":3664286,"name":"CVS Pharmacy # 10022","phone":"310-784-1351","web":"http://www.cvs.com","address":"1303 Sepulveda Blvd.","country":"United States of America","city":"CA","postal":"90501"},{"lat":"18.416447","lng":"-65.98654","id":3664287,"name":"CVS Pharmacy # 10023","web":"http://www.cvs.com","address":"6020 Ave Roberto Sanchez Vilella","country":"United States of America","city":"PR","postal":"982"},{"lat":"38.216028","lng":"-90.38534","id":3664288,"name":"CVS Pharmacy # 10025","phone":"636-937-3178","web":"http://www.cvs.com","address":"400 S. Truman Blvd.","country":"United States of America","city":"MO","postal":"63019"},{"lat":"32.663731","lng":"-114.444876","id":3664289,"name":"CVS Pharmacy # 10028","phone":"928-342-3433","web":"http://www.cvs.com","address":"11464 South Fortuna Rd.","country":"United States of America","city":"AZ","postal":"85367"},{"lat":"42.035427","lng":"-91.575219","id":3664290,"name":"CVS Pharmacy # 10032","phone":"319-373-0430","web":"http://www.cvs.com","address":"3495 7Th Avenue","country":"United States of America","city":"IA","postal":"52302"},{"lat":"40.567818","lng":"-80.020933","id":3664291,"name":"CVS Pharmacy # 10034","phone":"412-358-8690","web":"http://www.cvs.com","address":"611 Duncan Ave.","country":"United States of America","city":"PA","postal":"15237"},{"lat":"34.612389","lng":"-86.566757","id":3664292,"name":"CVS Pharmacy # 10037","phone":"256-650-1543","web":"http://www.cvs.com","address":"11030 South Memorial Pkwy.","country":"United States of America","city":"Alabama","postal":"35803"},{"lat":"41.413451","lng":"-73.669659","id":3664293,"name":"CVS Pharmacy # 10038","web":"http://www.cvs.com","address":"1905 Rt 6","country":"United States of America","city":"NY","postal":"10512"},{"lat":"40.965723","lng":"-73.872599","id":3664294,"name":"CVS Pharmacy # 10040","web":"http://www.cvs.com","address":"1217 Nepperhan Ave.","country":"United States of America","city":"NY","postal":"10703"},{"lat":"40.328183","lng":"-75.892859","id":3664295,"name":"CVS Pharmacy # 10045","phone":"610-370-4924","web":"http://www.cvs.com","address":"2239 Perkiomen Ave.","country":"United States of America","city":"PA","postal":"19606"},{"lat":"40.3052","lng":"-73.981623","id":3664296,"name":"CVS Pharmacy # 10046","web":"http://www.cvs.com","address":"71 S. Broadway","country":"United States of America","city":"NJ","postal":"7740"},{"lat":"40.450062","lng":"-74.397502","id":3664297,"name":"CVS Pharmacy # 10047","phone":"732-651-5960","web":"http://www.cvs.com","address":"380 Route 18","country":"United States of America","city":"NJ","postal":"8816"},{"lat":"37.716231","lng":"-85.878257","id":3664298,"name":"CVS Pharmacy # 10048","phone":"270-737-0352","web":"http://www.cvs.com","address":"1571 N. Dixie Avenue","country":"United States of America","city":"Kentucky","postal":"42701"},{"lat":"37.095061","lng":"-85.301825","id":3664299,"name":"CVS Pharmacy # 10049","phone":"270-384-0539","web":"http://www.cvs.com","address":"803 Jamestown St.","country":"United States of America","city":"KY","postal":"42728"},{"lat":"36.864663","lng":"-88.350502","id":3664300,"name":"CVS Pharmacy # 10050","phone":"270-527-8636","web":"http://www.cvs.com","address":"405 Main St.","country":"United States of America","city":"KY","postal":"42025"},{"lat":"42.087187","lng":"-87.701238","id":3664301,"name":"CVS Pharmacy # 10052","phone":"847-251-6223","web":"http://www.cvs.com","address":"1515 Sheridan Rd.","country":"United States of America","city":"IL","postal":"60091"},{"lat":"33.451631","lng":"-94.080718","id":3664302,"name":"CVS Pharmacy # 10055","phone":"903-255-0316","web":"http://www.cvs.com","address":"1901 Richmond Rd.","country":"United States of America","city":"TX","postal":"75503"},{"lat":"32.687073","lng":"-96.789082","id":3664303,"name":"CVS Pharmacy # 10056","phone":"214-375-8924","web":"http://www.cvs.com","address":"5050 S. Lancaster Rd","country":"United States of America","city":"TX","postal":"75216"},{"lat":"29.923159","lng":"-90.089375","id":3664304,"name":"CVS Pharmacy # 10058","web":"http://www.cvs.com","address":"1116 Louisiana Ave.","country":"United States of America","city":"LA","postal":"70115"},{"lat":"40.359282","lng":"-74.256045","id":3664305,"name":"CVS Pharmacy # 10062","phone":"732-970-0016","web":"http://www.cvs.com","address":"483 Route79","country":"United States of America","city":"NJ","postal":"7751"},{"lat":"31.101058","lng":"-97.92368","id":3664306,"name":"CVS Pharmacy # 10066","phone":"254-542-0099","web":"http://www.cvs.com","address":"1407 E. Highway 190","country":"United States of America","city":"TX","postal":"76522"},{"lat":"37.664555","lng":"-97.299277","id":3664307,"name":"CVS Pharmacy # 10070","phone":"316-686-1583","web":"http://www.cvs.com","address":"3149 East Harry","country":"United States of America","city":"KS","postal":"67211"},{"lat":"35.228095","lng":"-88.231542","id":3664308,"name":"CVS Pharmacy # 10072","phone":"731-925-4443","web":"http://www.cvs.com","address":"855 Wayne Rd.","country":"United States of America","city":"TN","postal":"38372"},{"lat":"37.694033","lng":"-97.280087","id":3664309,"name":"CVS Pharmacy # 10075","phone":"316-682-1733","web":"http://www.cvs.com","address":"4808 East Central Ave.","country":"United States of America","city":"KS","postal":"67208"},{"lat":"37.708222","lng":"-97.463136","id":3664310,"name":"CVS Pharmacy # 10077","phone":"316-773-9048","web":"http://www.cvs.com","address":"10405 West 13Th St.","country":"United States of America","city":"Kansas","postal":"67212"},{"lat":"25.986926","lng":"-80.126773","id":3664311,"name":"CVS Pharmacy # 10078","web":"http://www.cvs.com","address":"2101 E. Hallandale Beach Blvd.","country":"United States of America","city":"FL","postal":"33009"},{"lat":"21.301604","lng":"-157.847534","id":3664312,"name":"CVS Pharmacy # 10081","phone":"808-591-8402","web":"http://www.cvs.com","address":"1030 S King St","country":"United States of America","city":"HI","postal":"96817"},{"lat":"36.860116","lng":"-76.394951","id":3664313,"name":"CVS Pharmacy # 10088","phone":"757-686-6980","web":"http://www.cvs.com","address":"5829 High St. West","country":"United States of America","city":"VA","postal":"23703"},{"lat":"42.383263","lng":"-71.071813","id":3664314,"name":"CVS Pharmacy # 1009","phone":"617-242-6025","web":"http://www.cvs.com","address":"509 Main St, Bunker Hill Mall","country":"United States of America","city":"MA","postal":"2129"},{"lat":"40.169482","lng":"-74.03332","id":3664315,"name":"CVS Pharmacy # 10091","web":"http://www.cvs.com","address":"1801 State Route 71","country":"United States of America","city":"NJ","postal":"7719"},{"lat":"43.588772","lng":"-84.768168","id":3664316,"name":"CVS Pharmacy # 10098","phone":"989-772-1945","web":"http://www.cvs.com","address":"1306 S Mission St.","country":"United States of America","city":"MI","postal":"48858"},{"lat":"36.126286","lng":"-97.058174","id":3664317,"name":"CVS Pharmacy # 10101","phone":"405-707-0287","web":"http://www.cvs.com","address":"101 E. Hall Of Fame Ave.","country":"United States of America","city":"OK","postal":"74075"},{"lat":"36.390964","lng":"-97.889347","id":3664318,"name":"CVS Pharmacy # 10102","phone":"580-234-5192","web":"http://www.cvs.com","address":"930 West Garriott Rd.","country":"United States of America","city":"OK","postal":"73703"},{"lat":"31.758811","lng":"-106.487484","id":3664319,"name":"CVS Pharmacy # 10105","phone":"915-533-3709","web":"http://www.cvs.com","address":"201 North Mesa St.","country":"United States of America","city":"TX","postal":"79901"},{"lat":"30.468787","lng":"-97.588601","id":3664320,"name":"CVS Pharmacy # 10106","phone":"512-990-0814","web":"http://www.cvs.com","address":"2013 Kelly Ln.","country":"United States of America","city":"TX","postal":"78660"},{"lat":"26.230194","lng":"-98.322666","id":3664321,"name":"CVS Pharmacy # 10107","web":"http://www.cvs.com","address":"2300 North Conway Ave.","country":"United States of America","city":"TX","postal":"78574"},{"lat":"18.004464","lng":"-66.612121","id":3664322,"name":"CVS Pharmacy # 10110","phone":"787-284-2500","web":"http://www.cvs.com","address":"2511 Ponce Byp","country":"United States of America","city":"PR","postal":"717"},{"lat":"41.732148","lng":"-93.599618","id":3664323,"name":"CVS Pharmacy # 10114","phone":"515-963-7889","web":"http://www.cvs.com","address":"104 E. First St.","country":"United States of America","city":"IA","postal":"50021"},{"lat":"37.043633","lng":"-93.303362","id":3664324,"name":"CVS Pharmacy # 10118","phone":"417-724-8409","web":"http://www.cvs.com","address":"501 West Mt. Vernon St.","country":"United States of America","city":"MO","postal":"65714"},{"lat":"37.861956","lng":"-122.258641","id":3664325,"name":"CVS Pharmacy # 10121","phone":"510-549-9063","web":"http://www.cvs.com","address":"2655 Telegraph Ave.","country":"United States of America","city":"CA","postal":"94704"},{"lat":"39.292764","lng":"-76.590536","id":3664326,"name":"CVS Pharmacy # 10123","web":"http://www.cvs.com","address":"101 N Wolfe St.","country":"United States of America","city":"MD","postal":"21287"},{"lat":"39.658368","lng":"-79.953722","id":3664327,"name":"CVS Pharmacy # 10124","phone":"304-598-7535","web":"http://www.cvs.com","address":"1000 Pineview Drive","country":"United States of America","city":"WV","postal":"26505"},{"lat":"44.951624","lng":"-72.163064","id":3664328,"name":"CVS Pharmacy # 10126","web":"http://www.cvs.com","address":"4730 U.S. Route 5","country":"United States of America","city":"VT","postal":"5829"},{"lat":"41.016463","lng":"-75.897468","id":3664329,"name":"CVS Pharmacy # 10128","phone":"570-636-2520","web":"http://www.cvs.com","address":"500 Centre St","country":"United States of America","city":"PA","postal":"18224"},{"lat":"26.939082","lng":"-82.338157","id":3664330,"name":"CVS Pharmacy # 1013","phone":"941-474-3267","web":"http://www.cvs.com","address":"1760 S Mccall Rd","country":"United States of America","city":"FL","postal":"34223"},{"lat":"25.748385","lng":"-80.303172","id":3664331,"name":"CVS Pharmacy # 10131","phone":"305-264-0636","web":"http://www.cvs.com","address":"2393 Sw 67Th Ave.","country":"United States of America","city":"FL","postal":"33155"},{"lat":"38.79966","lng":"-90.700929","id":3664332,"name":"CVS Pharmacy # 10134","web":"http://www.cvs.com","address":"801 Highway K","country":"United States of America","city":"MO","postal":"63366"},{"lat":"42.80162","lng":"-86.11356","id":3664333,"name":"CVS Pharmacy # 10137","phone":"616-396-2959","web":"http://www.cvs.com","address":"132 Douglas Ave.","country":"United States of America","city":"MI","postal":"49424"},{"lat":"30.226911","lng":"-95.521899","id":3664334,"name":"CVS Pharmacy # 10140","phone":"281-298-8705","web":"http://www.cvs.com","address":"3705 Fm 1488","country":"United States of America","city":"TX","postal":"77384"},{"lat":"29.347112","lng":"-98.614381","id":3664335,"name":"CVS Pharmacy # 10141","phone":"210-623-6645","web":"http://www.cvs.com","address":"5975 Old Pearsall Rd.","country":"United States of America","city":"TX","postal":"78242"},{"lat":"42.704816","lng":"-89.005757","id":3664336,"name":"CVS Pharmacy # 10143","phone":"608-756-0614","web":"http://www.cvs.com","address":"1700 Milton Ave.","country":"United States of America","city":"WI","postal":"53545"},{"lat":"33.97755","lng":"-118.417526","id":3664337,"name":"CVS Pharmacy # 10146","web":"http://www.cvs.com","address":"12746 W. Jefferson Blvd., Suite 3160","country":"United States of America","city":"CA","postal":"90094"},{"lat":"37.138976","lng":"-93.340766","id":3664338,"name":"CVS Pharmacy # 10151","phone":"417-889-0056","web":"http://www.cvs.com","address":"3045 W. Republic St.","country":"United States of America","city":"MO","postal":"65807"},{"lat":"38.366677","lng":"-93.751335","id":3664339,"name":"CVS Pharmacy # 10152","phone":"660-890-0707","web":"http://www.cvs.com","address":"1501 E. Ohio St.","country":"United States of America","city":"MO","postal":"64735"},{"lat":"37.282963","lng":"-83.224609","id":3664340,"name":"CVS Pharmacy # 10155","phone":"606-435-2363","web":"http://www.cvs.com","address":"102 Village Lane","country":"United States of America","city":"KY","postal":"41701"},{"lat":"35.1524","lng":"-79.414891","id":3664341,"name":"CVS Pharmacy # 10156","phone":"910-944-0438","web":"http://www.cvs.com","address":"1550 N. Sandhills Blvd.","country":"United States of America","city":"NC","postal":"28315"},{"lat":"35.260589","lng":"-79.045172","id":3664342,"name":"CVS Pharmacy # 10157","phone":"910-960-0250","web":"http://www.cvs.com","address":"1025 Nc 24-87","country":"United States of America","city":"NC","postal":"28326"},{"lat":"37.723178","lng":"-97.363655","id":3664343,"name":"CVS Pharmacy # 10159","phone":"316-821-9678","web":"http://www.cvs.com","address":"2014 West 21St Ave N","country":"United States of America","city":"KS","postal":"67203"},{"lat":"37.055017","lng":"-94.514649","id":3664344,"name":"CVS Pharmacy # 10160","web":"http://www.cvs.com","address":"112 East 32Nd St.","country":"United States of America","city":"MO","postal":"64804"},{"lat":"41.627875","lng":"-93.620706","id":3664345,"name":"CVS Pharmacy # 10161","phone":"515-282-8454","web":"http://www.cvs.com","address":"215 Euclid Avenue","country":"United States of America","city":"IA","postal":"50313"},{"lat":"41.557068","lng":"-93.596288","id":3664346,"name":"CVS Pharmacy # 10162","phone":"515-288-1316","web":"http://www.cvs.com","address":"3151 Se 14Th St.","country":"United States of America","city":"IA","postal":"50320"},{"lat":"44.372494","lng":"-89.817794","id":3664347,"name":"CVS Pharmacy # 10163","phone":"715-423-2340","web":"http://www.cvs.com","address":"2410 South 8Th St.","country":"United States of America","city":"WI","postal":"54494"},{"lat":"37.686024","lng":"-122.473081","id":3664348,"name":"CVS Pharmacy # 10165","phone":"650-992-2521","web":"http://www.cvs.com","address":"135 Pierce St.","country":"United States of America","city":"CA","postal":"94015"},{"lat":"40.957511","lng":"-73.845003","id":3664349,"name":"CVS Pharmacy # 10166","web":"http://www.cvs.com","address":"1703 Central Park Avenue","country":"United States of America","city":"NY","postal":"10710"},{"lat":"30.005278","lng":"-90.200217","id":3664350,"name":"CVS Pharmacy # 1017","phone":"504-456-4851","web":"http://www.cvs.com","address":"5300 Veterans Memorial Blvd.","country":"United States of America","city":"LA","postal":"70003"},{"lat":"38.914694","lng":"-77.226373","id":3664351,"name":"CVS Pharmacy # 10170","phone":"703-761-3924","web":"http://www.cvs.com","address":"8117 Leesburg Pike","country":"United States of America","city":"VA","postal":"22182"},{"lat":"38.812449","lng":"-90.355327","id":3664352,"name":"CVS Pharmacy # 10171","web":"http://www.cvs.com","address":"696-698 North Hwy 67 Street","country":"United States of America","city":"MO","postal":"63031"},{"lat":"44.970391","lng":"-89.636279","id":3664353,"name":"CVS Pharmacy # 10172","phone":"715-842-0744","web":"http://www.cvs.com","address":"102 Central Bridge St.","country":"United States of America","city":"WI","postal":"54401"},{"lat":"39.955787","lng":"-86.164225","id":3664354,"name":"CVS Pharmacy # 10173","phone":"317-574-0145","web":"http://www.cvs.com","address":"367 W. 116Th Street","country":"United States of America","city":"IN","postal":"46032"},{"lat":"41.471079","lng":"-87.335751","id":3664355,"name":"CVS Pharmacy # 10176","web":"http://www.cvs.com","address":"10 East 81St Avenue","country":"United States of America","city":"IN","postal":"46410"},{"lat":"40.544795","lng":"-111.871093","id":3664356,"name":"CVS Pharmacy # 10187","phone":"801-572-7395","web":"http://www.cvs.com","address":"11385 South 700 East","country":"United States of America","city":"UT","postal":"84070"},{"lat":"37.787354","lng":"-122.421189","id":3664357,"name":"CVS Pharmacy # 10189","phone":"415-923-5863","web":"http://www.cvs.com","address":"1285 Sutter St","country":"United States of America","city":"CA","postal":"94109"},{"lat":"37.651318","lng":"-122.067535","id":3664358,"name":"CVS Pharmacy # 10199","web":"http://www.cvs.com","address":"26059 Mission Blvd.","country":"United States of America","city":"CA","postal":"94544"},{"lat":"38.214908","lng":"-85.25826","id":3664359,"name":"CVS Pharmacy # 10200","phone":"502-633-2115","web":"http://www.cvs.com","address":"2169 Midland Trail","country":"United States of America","city":"KY","postal":"40065"},{"lat":"36.797163","lng":"-76.259026","id":3664360,"name":"CVS Pharmacy # 10202","phone":"757-545-1002","web":"http://www.cvs.com","address":"2212 Campostella Rd.","country":"United States of America","city":"VA","postal":"23324"},{"lat":"35.034943","lng":"-90.025895","id":3664361,"name":"CVS Pharmacy # 10204","phone":"901-348-4642","web":"http://www.cvs.com","address":"4155 Elvis Presley Blvd.","country":"United States of America","city":"TN","postal":"38116"},{"lat":"38.375495","lng":"-85.179601","id":3664362,"name":"CVS Pharmacy # 10205","phone":"502-845-5027","web":"http://www.cvs.com","address":"4894 N. Main St.","country":"United States of America","city":"KY","postal":"40019"},{"lat":"33.611854","lng":"-85.827307","id":3664363,"name":"CVS Pharmacy # 10207","phone":"256-835-6766","web":"http://www.cvs.com","address":"825 Quintard Dr.","country":"United States of America","city":"AL","postal":"36203"},{"lat":"40.959529","lng":"-81.466685","id":3664364,"name":"CVS Pharmacy # 10209","phone":"330-899-9085","web":"http://www.cvs.com","address":"3761 Massilon Rd.","country":"United States of America","postal":"44685"},{"lat":"41.109776","lng":"-73.995512","id":3664365,"name":"CVS Pharmacy # 10210","phone":"845-623-6232","web":"http://www.cvs.com","address":"330 Route 304,","country":"United States of America","city":"NY","postal":"10954"},{"lat":"40.737581","lng":"-74.266009","id":3664366,"name":"CVS Pharmacy # 10211","web":"http://www.cvs.com","address":"453 Valley Street","country":"United States of America","city":"NJ","postal":"7040"},{"lat":"36.018137","lng":"-95.97589","id":3664367,"name":"CVS Pharmacy # 10214","web":"http://www.cvs.com","address":"511 S. Elm St.","country":"United States of America","city":"OK","postal":"74037"},{"lat":"32.589792","lng":"-93.713816","id":3664368,"name":"CVS Pharmacy # 10218","phone":"318-746-2924","web":"http://www.cvs.com","address":"4870 Airline Dr.","country":"United States of America","city":"LA","postal":"71111"},{"lat":"32.515916","lng":"-92.191227","id":3664369,"name":"CVS Pharmacy # 10219","phone":"318-396-3530","web":"http://www.cvs.com","address":"5350 Cypress St.","country":"United States of America","city":"LA","postal":"71291"},{"lat":"29.978196","lng":"-90.210471","id":3664370,"name":"CVS Pharmacy # 10220","phone":"504-729-6979","web":"http://www.cvs.com","address":"101 David Dr.","country":"United States of America","city":"LA","postal":"70003"},{"lat":"33.917872","lng":"-117.933564","id":3664371,"name":"CVS Pharmacy # 10223","phone":"714-773-0841","web":"http://www.cvs.com","address":"1151 South Harbor Blvd","country":"United States of America","city":"CA","postal":"90631"},{"lat":"41.166754","lng":"-112.026697","id":3664372,"name":"CVS Pharmacy # 10232","phone":"801-825-5648","web":"http://www.cvs.com","address":"5305 South 1900 West","country":"United States of America","city":"UT","postal":"84067"},{"lat":"41.185677","lng":"-111.948373","id":3664373,"name":"CVS Pharmacy # 10234","web":"http://www.cvs.com","address":"4240 Harrison Blvd.","country":"United States of America","city":"UT","postal":"84403"},{"lat":"40.885948","lng":"-74.532367","id":3664374,"name":"CVS Pharmacy # 10237","web":"http://www.cvs.com","address":"457 Route 46","country":"United States of America","postal":"7866"},{"lat":"42.349224","lng":"-71.132378","id":3664375,"name":"CVS Pharmacy # 1024","phone":"617-277-2953","web":"http://www.cvs.com","address":"1266 Commonwealth Avenue","country":"United States of America","city":"MA","postal":"2134"},{"lat":"39.079772","lng":"-94.432587","id":3664376,"name":"CVS Pharmacy # 10241","phone":"816-833-8790","web":"http://www.cvs.com","address":"1315 West 23Rd St.","country":"United States of America","city":"MO","postal":"64050"},{"lat":"40.91758","lng":"-98.357367","id":3664377,"name":"CVS Pharmacy # 10243","phone":"308-384-4089","web":"http://www.cvs.com","address":"1710 W. 2Nd St.","country":"United States of America","city":"NE","postal":"68803"},{"lat":"41.374681","lng":"-83.648429","id":3664378,"name":"CVS Pharmacy # 10248","phone":"419-352-3119","web":"http://www.cvs.com","address":"212 E. Wooster St.","country":"United States of America","city":"OH","postal":"43402"},{"lat":"42.503348","lng":"-70.92405","id":3664379,"name":"CVS Pharmacy # 1025","phone":"978-745-5593","web":"http://www.cvs.com","address":"272 Highland Ave.","country":"United States of America","city":"MA","postal":"1970"},{"lat":"40.279637","lng":"-78.862219","id":3664380,"name":"CVS Pharmacy # 10250","web":"http://www.cvs.com","address":"1198 Scalp Ave.","country":"United States of America","city":"PA","postal":"15904"},{"lat":"44.732172","lng":"-92.852499","id":3664381,"name":"CVS Pharmacy # 10252","web":"http://www.cvs.com","address":"1411 Vermillion","country":"United States of America","city":"MN","postal":"55033"},{"lat":"35.466575","lng":"-94.356424","id":3664382,"name":"CVS Pharmacy # 10255","web":"http://www.cvs.com","address":"2015 Fayetteville Road","country":"United States of America","city":"AR","postal":"72956"},{"lat":"37.30292","lng":"-89.551838","id":3664383,"name":"CVS Pharmacy # 10256","phone":"573-651-5264","web":"http://www.cvs.com","address":"2161 William St.","country":"United States of America","city":"MO","postal":"63703"},{"lat":"40.432655","lng":"-86.914764","id":3664384,"name":"CVS Pharmacy # 10257","phone":"765-743-1554","web":"http://www.cvs.com","address":"720 Northwestern Ave,  Ste #6","country":"United States of America","city":"IN","postal":"47906"},{"lat":"41.494007","lng":"-87.520498","id":3664385,"name":"CVS Pharmacy # 10259","web":"http://www.cvs.com","address":"225 Joliet St.","country":"United States of America","city":"IN","postal":"46311"},{"lat":"42.102408","lng":"-72.591904","id":3664386,"name":"CVS Pharmacy # 1026","phone":"413-781-1669","web":"http://www.cvs.com","address":"1500 Main Street","country":"United States of America","city":"MA","postal":"1103"},{"lat":"27.689524","lng":"-97.33066","id":3664387,"name":"CVS Pharmacy # 10262","phone":"361-986-0000","web":"http://www.cvs.com","address":"7798 So. Padre Island Dr.","country":"United States of America","city":"TX","postal":"78412"},{"lat":"30.423941","lng":"-97.625922","id":3664388,"name":"CVS Pharmacy # 10263","phone":"512-989-5559","web":"http://www.cvs.com","address":"1605 Wells Branch Pkwy","country":"United States of America","city":"TX","postal":"78660"},{"lat":"30.004988","lng":"-95.291581","id":3664389,"name":"CVS Pharmacy # 10267","phone":"281-548-1020","web":"http://www.cvs.com","address":"8789 West Fm 1960 Bypass Rd.,","country":"United States of America","city":"TX","postal":"77338"},{"lat":"30.111676","lng":"-95.388135","id":3664390,"name":"CVS Pharmacy # 10270","phone":"281-907-6036","web":"http://www.cvs.com","address":"3487 Rayford Rd.","country":"United States of America","city":"TX","postal":"77386"},{"lat":"33.214921","lng":"-97.14875","id":3664391,"name":"CVS Pharmacy # 10271","web":"http://www.cvs.com","address":"1510 W. Hickory St.","country":"United States of America","city":"TX","postal":"76201"},{"lat":"36.090341","lng":"-95.885891","id":3664392,"name":"CVS Pharmacy # 10273","phone":"918-270-1438","web":"http://www.cvs.com","address":"8010 E. 51St Street","country":"United States of America","city":"OK","postal":"74145"},{"lat":"34.521294","lng":"-97.966248","id":3664393,"name":"CVS Pharmacy # 10274","phone":"580-470-8857","web":"http://www.cvs.com","address":"1520 W. Elk Ave.","country":"United States of America","city":"OK","postal":"73533"},{"lat":"34.92307","lng":"-95.757851","id":3664394,"name":"CVS Pharmacy # 10275","phone":"918-302-0566","web":"http://www.cvs.com","address":"21 South Strong Blvd.","country":"United States of America","city":"OK","postal":"74501"},{"lat":"35.913823","lng":"-79.054477","id":3664395,"name":"CVS Pharmacy # 10277","phone":"919-942-6447","web":"http://www.cvs.com","address":"137 E. Franklin St.","country":"United States of America","city":"NC","postal":"27514"},{"lat":"37.319926","lng":"-84.93062","id":3664396,"name":"CVS Pharmacy # 10278","phone":"606-787-1976","web":"http://www.cvs.com","address":"397 N. Wallace Wilkinsons Blvd.","country":"United States of America","city":"Kentucky","postal":"42539"},{"lat":"41.635946","lng":"-72.874893","id":3664397,"name":"CVS Pharmacy # 1028","phone":"203-276-1293","web":"http://www.cvs.com","address":"724 Queen St,","country":"United States of America","city":"CT","postal":"6489"},{"lat":"37.947813","lng":"-91.777269","id":3664398,"name":"CVS Pharmacy # 10280","phone":"573-308-4887","web":"http://www.cvs.com","address":"500 N. Bishop Ave.","country":"United States of America","city":"MO","postal":"65401"},{"lat":"36.758771","lng":"-90.408075","id":3664399,"name":"CVS Pharmacy # 10281","phone":"573-785-7582","web":"http://www.cvs.com","address":"225 N. Westwood Blvd.","country":"United States of America","city":"MO","postal":"63901"},{"lat":"42.500886","lng":"-94.170324","id":3664400,"name":"CVS Pharmacy # 10282","phone":"515-955-6453","web":"http://www.cvs.com","address":"2029 5Th Ave. South","country":"United States of America","city":"IA","postal":"50501"},{"lat":"43.101994","lng":"-77.461928","id":3664401,"name":"CVS Pharmacy # 10284","web":"http://www.cvs.com","address":"1304 Fairport Rd.","country":"United States of America","city":"NY","postal":"14450"},{"lat":"47.446069","lng":"-122.198205","id":3664402,"name":"CVS Pharmacy # 10285","phone":"425-277-1040","web":"http://www.cvs.com","address":"10712 Se Carr Road","country":"United States of America","city":"WA","postal":"98055"},{"lat":"38.899792","lng":"-76.997478","id":3664403,"name":"CVS Pharmacy # 10287","web":"http://www.cvs.com","address":"645 H Street, Ne","country":"United States of America","city":"DC","postal":"20002"},{"lat":"40.819043","lng":"-74.001858","id":3664404,"name":"CVS Pharmacy # 10289","phone":"201-941-2180","web":"http://www.cvs.com","address":"215 Bergen Blvd.","country":"United States of America","city":"NJ","postal":"7022"},{"lat":"42.032588","lng":"-97.426578","id":3664405,"name":"CVS Pharmacy # 10293","phone":"402-371-9438","web":"http://www.cvs.com","address":"1301 West Norfolk Ave.","country":"United States of America","city":"NE","postal":"68701"},{"lat":"38.412735","lng":"-96.181699","id":3664406,"name":"CVS Pharmacy # 10294","phone":"620-340-0121","web":"http://www.cvs.com","address":"1215 Merchant St.","country":"United States of America","city":"KS","postal":"66801"},{"lat":"21.307437","lng":"-157.862308","id":3664407,"name":"CVS Pharmacy # 10295","phone":"808-525-6410","web":"http://www.cvs.com","address":"841 Bishop St., Suite 105","country":"United States of America","city":"HI","postal":"96813"},{"lat":"36.878488","lng":"-89.579339","id":3664408,"name":"CVS Pharmacy # 10297","phone":"573-472-2516","web":"http://www.cvs.com","address":"120 South Main St.","country":"United States of America","city":"MO","postal":"63801"},{"lat":"39.02167","lng":"-96.829087","id":3664409,"name":"CVS Pharmacy # 10304","phone":"785-223-0781","web":"http://www.cvs.com","address":"203 S. Washington Street","country":"United States of America","city":"KS","postal":"66441"},{"lat":"38.703668","lng":"-93.227846","id":3664410,"name":"CVS Pharmacy # 10305","phone":"660-826-5087","web":"http://www.cvs.com","address":"100 East Broadway Blvd","country":"United States of America","city":"MO","postal":"65301"},{"lat":"18.455183","lng":"-66.065431","id":3664411,"name":"CVS Pharmacy # 10313","web":"http://www.cvs.com","address":"1307 Ave. Ashford","country":"United States of America","city":"PR","postal":"907"},{"lat":"18.44734","lng":"-66.069233","id":3664412,"name":"CVS Pharmacy # 10314","web":"http://www.cvs.com","address":"374 Ave Ponce De Leon","country":"United States of America","city":"PR","postal":"918"},{"lat":"18.437599","lng":"-66.0465","id":3664413,"name":"CVS Pharmacy # 10315","web":"http://www.cvs.com","address":"1901 Ave Rexach","country":"United States of America","city":"PR","postal":"915"},{"lat":"30.359997","lng":"-91.123467","id":3664414,"name":"CVS Pharmacy # 10318","phone":"225-767-0966","web":"http://www.cvs.com","address":"9326 Burbank Dr.","country":"United States of America","city":"LA","postal":"70820"},{"lat":"42.090579","lng":"-71.270834","id":3664415,"name":"CVS Pharmacy # 10319","phone":"508-543-4545","web":"http://www.cvs.com","address":"72 Washington Street","country":"United States of America","city":"MA","postal":"2035"},{"lat":"41.199216","lng":"-74.485734","id":3664416,"name":"CVS Pharmacy # 10322","web":"http://www.cvs.com","address":"302 Route 94","country":"United States of America","city":"NJ","postal":"7462"},{"lat":"38.638661","lng":"-90.346037","id":3664417,"name":"CVS Pharmacy # 10325","phone":"314-726-2124","web":"http://www.cvs.com","address":"8101 Clayton Rd.","country":"United States of America","city":"MO","postal":"63117"},{"lat":"38.827725","lng":"-97.594101","id":3664418,"name":"CVS Pharmacy # 10327","phone":"785-309-0618","web":"http://www.cvs.com","address":"681 S. Ohio St.","country":"United States of America","city":"KS","postal":"67401"},{"lat":"41.615219","lng":"-93.697348","id":3664419,"name":"CVS Pharmacy # 10329","phone":"515-255-5233","web":"http://www.cvs.com","address":"2303 Merle Hay Road","country":"United States of America","city":"IA","postal":"50310"},{"lat":"47.62424","lng":"-122.357039","id":3664420,"name":"CVS Pharmacy # 10331","web":"http://www.cvs.com","address":"531 Queen Anne Avenue, North","country":"United States of America","city":"WA","postal":"98109"},{"lat":"38.599985","lng":"-90.406957","id":3664421,"name":"CVS Pharmacy # 10334","web":"http://www.cvs.com","address":"10820 Manchester Rd.","country":"United States of America","city":"MO","postal":"63122"},{"lat":"30.350516","lng":"-97.387593","id":3664422,"name":"CVS Pharmacy # 10337","phone":"512-285-5552","web":"http://www.cvs.com","address":"1300 W. Us Highway","country":"United States of America","city":"TX","postal":"78621"},{"lat":"26.159807","lng":"-97.823318","id":3664423,"name":"CVS Pharmacy # 10338","web":"http://www.cvs.com","address":"224 Main Street N.","country":"United States of America","city":"TX","postal":"78559"},{"lat":"42.289132","lng":"-71.40997","id":3664424,"name":"CVS Pharmacy # 1034","phone":"508-820-4818","web":"http://www.cvs.com","address":"492 Concord Street","country":"United States of America","city":"MA","postal":"1702"},{"lat":"32.662629","lng":"-95.487886","id":3664425,"name":"CVS Pharmacy # 10340","phone":"903-569-5343","web":"http://www.cvs.com","address":"210 East Broad St.","country":"United States of America","city":"TX","postal":"75773"},{"lat":"39.713096","lng":"-91.391699","id":3664426,"name":"CVS Pharmacy # 10345","phone":"573-719-3122","web":"http://www.cvs.com","address":"3603 Mcmasters Ave.","country":"United States of America","city":"MO","postal":"63401"},{"lat":"29.547992","lng":"-95.585934","id":3664427,"name":"CVS Pharmacy # 10350","phone":"281-265-0562","web":"http://www.cvs.com","address":"4523 L J Parkway","country":"United States of America","city":"TX","postal":"77479"},{"lat":"30.621394","lng":"-96.342923","id":3664428,"name":"CVS Pharmacy # 10352","phone":"979-721-9125","web":"http://www.cvs.com","address":"717 University Dr. Suite 101","country":"United States of America","city":"TX","postal":"77840"},{"lat":"38.774519","lng":"-90.317199","id":3664429,"name":"CVS Pharmacy # 10355","web":"http://www.cvs.com","address":"1550 South New Florissant Rd","country":"United States of America","city":"MO","postal":"63031"},{"lat":"32.926358","lng":"-83.736424","id":3664430,"name":"CVS Pharmacy # 10357","phone":"478-471-4497","web":"http://www.cvs.com","address":"1544 Bass Rd.","country":"United States of America","city":"GA","postal":"31210"},{"lat":"32.854386","lng":"-84.620868","id":3664431,"name":"CVS Pharmacy # 10358","phone":"706-846-1241","web":"http://www.cvs.com","address":"503 West Main St.","country":"United States of America","city":"GA","postal":"31816"},{"lat":"40.643326","lng":"-75.42702","id":3664432,"name":"CVS Pharmacy # 1036","phone":"610-868-5282","web":"http://www.cvs.com","address":"2434 Catasauqua Road","country":"United States of America","city":"PA","postal":"18018"},{"lat":"40.197291","lng":"-74.252751","id":3664433,"name":"CVS Pharmacy # 10363","web":"http://www.cvs.com","address":"4251 U.S. Hwy 9","country":"United States of America","city":"NJ","postal":"7731"},{"lat":"40.610038","lng":"-111.937803","id":3664434,"name":"CVS Pharmacy # 10370","web":"http://www.cvs.com","address":"7777 S. Redwood Rd.","country":"United States of America","city":"UT","postal":"84084"},{"lat":"39.968166","lng":"-75.576206","id":3664435,"name":"CVS Pharmacy # 10371","web":"http://www.cvs.com","address":"1040 West Chester Pike","country":"United States of America","city":"PA","postal":"19382"},{"lat":"40.800016","lng":"-81.395846","id":3664436,"name":"CVS Pharmacy # 10372","phone":"330-453-4845","web":"http://www.cvs.com","address":"2210 West Tuscarawas Street","country":"United States of America","city":"OH","postal":"44708"},{"lat":"47.459318","lng":"-122.335255","id":3664437,"name":"CVS Pharmacy # 10373","web":"http://www.cvs.com","address":"117 Sw 160Th Street","country":"United States of America","city":"WA","postal":"98166"},{"lat":"39.453056","lng":"-75.681661","id":3664438,"name":"CVS Pharmacy # 10375","web":"http://www.cvs.com","address":"674 Middletown Odessa Rd.","country":"United States of America","city":"DE","postal":"19709"},{"lat":"39.963206","lng":"-75.173835","id":3664439,"name":"CVS Pharmacy # 10378","web":"http://www.cvs.com","address":"501 North 22Nd St.","country":"United States of America","city":"PA","postal":"19130"},{"lat":"40.894137","lng":"-73.975852","id":3664440,"name":"CVS Pharmacy # 10379","phone":"201-541-5548","web":"http://www.cvs.com","address":"10 West Palisade Ave.","country":"United States of America","city":"NJ","postal":"7631"},{"lat":"41.760184","lng":"-72.716333","id":3664441,"name":"CVS Pharmacy # 1038","phone":"203-236-9358","web":"http://www.cvs.com","address":"1044 Boulevard","country":"United States of America","city":"CT","postal":"6119"},{"lat":"40.874523","lng":"-74.438784","id":3664442,"name":"CVS Pharmacy # 10381","web":"http://www.cvs.com","address":"3503 Route 46","country":"United States of America","postal":"7054"},{"lat":"47.661667","lng":"-122.333561","id":3664443,"name":"CVS Pharmacy # 10387","web":"http://www.cvs.com","address":"2100 North 45Th Street","country":"United States of America","city":"WA","postal":"98103"},{"lat":"32.783555","lng":"-79.936232","id":3664444,"name":"CVS Pharmacy # 1039","phone":"843-720-8523","web":"http://www.cvs.com","address":"59 George St.","country":"United States of America","city":"SC","postal":"29401"},{"lat":"46.532888","lng":"-93.705499","id":3664445,"name":"CVS Pharmacy # 10397","phone":"218-927-3754","web":"http://www.cvs.com","address":"25 2Nd Street Northeast","country":"United States of America","city":"MN","postal":"56431"},{"lat":"39.983386","lng":"-75.930942","id":3664446,"name":"CVS Pharmacy # 10399","phone":"610-857-2114","web":"http://www.cvs.com","address":"3373 E. Lincoln Hwy.","country":"United States of America","city":"PA","postal":"19365"},{"lat":"27.965246","lng":"-82.787092","id":3664447,"name":"CVS Pharmacy # 104","phone":"727-446-6037","web":"http://www.cvs.com","address":"1 S Missouri Ave","country":"United States of America","city":"FL","postal":"33756"},{"lat":"33.346113","lng":"-96.58402","id":3664448,"name":"CVS Pharmacy # 10402","phone":"972-924-8686","web":"http://www.cvs.com","address":"2740 W. White Street","country":"United States of America","city":"TX","postal":"75409"},{"lat":"29.840722","lng":"-98.259434","id":3664449,"name":"CVS Pharmacy # 10403","phone":"830-899-9700","web":"http://www.cvs.com","address":"8049 Fm 2673","country":"United States of America","city":"TX","postal":"78133"},{"lat":"36.437767","lng":"-94.236221","id":3664450,"name":"CVS Pharmacy # 10408","web":"http://www.cvs.com","address":"2833 Bella Vista Way","country":"United States of America","city":"AR","postal":"72714"},{"lat":"36.095866","lng":"-94.151782","id":3664451,"name":"CVS Pharmacy # 10409","web":"http://www.cvs.com","address":"2402 N. College Avenue","country":"United States of America","city":"AR","postal":"72703"},{"lat":"44.879002","lng":"-91.930236","id":3664452,"name":"CVS Pharmacy # 10411","phone":"715-235-5349","web":"http://www.cvs.com","address":"433 Broadway Street South","country":"United States of America","city":"WI","postal":"54751"},{"lat":"33.32028","lng":"-96.776475","id":3664453,"name":"CVS Pharmacy # 10413","phone":"972-382-8668","web":"http://www.cvs.com","address":"310 So. Preston Rd.,","country":"United States of America","city":"TX","postal":"75009"},{"lat":"31.084085","lng":"-97.456711","id":3664454,"name":"CVS Pharmacy # 10414","web":"http://www.cvs.com","address":"2849 N. Main St.","country":"United States of America","city":"TX","postal":"76513"},{"lat":"34.149908","lng":"-86.844331","id":3664455,"name":"CVS Pharmacy # 10416","phone":"256-775-8778","web":"http://www.cvs.com","address":"1906 Cherokee Ave Sw","country":"United States of America","city":"AL","postal":"35055"},{"lat":"37.205293","lng":"-93.276508","id":3664456,"name":"CVS Pharmacy # 10417","web":"http://www.cvs.com","address":"1153 Elm St.","country":"United States of America","city":"MO","postal":"65806"},{"lat":"38.791107","lng":"-90.576887","id":3664457,"name":"CVS Pharmacy # 10418","web":"http://www.cvs.com","address":"200 Jungermann Rd.","country":"United States of America","city":"MO","postal":"63376"},{"lat":"44.848142","lng":"-87.361354","id":3664458,"name":"CVS Pharmacy # 10419","phone":"920-743-6089","web":"http://www.cvs.com","address":"1407 Egg Harbor Rd.","country":"United States of America","city":"WI","postal":"54235"},{"lat":"40.681489","lng":"-112.023696","id":3664459,"name":"CVS Pharmacy # 10424","web":"http://www.cvs.com","address":"5557 West 4100 South","country":"United States of America","city":"UT","postal":"84120"},{"lat":"34.862354","lng":"-111.779249","id":3664460,"name":"CVS Pharmacy # 10425","web":"http://www.cvs.com","address":"20 Airport Road","country":"United States of America","city":"AZ","postal":"86336"},{"lat":"29.797597","lng":"-98.41856","id":3664461,"name":"CVS Pharmacy # 10428","web":"http://www.cvs.com","address":"19995 Highway 46 West","country":"United States of America","city":"TX","postal":"78070"},{"lat":"34.833419","lng":"-92.231142","id":3664462,"name":"CVS Pharmacy # 10430","phone":"501-834-1090","web":"http://www.cvs.com","address":"8604 Highway 107","country":"United States of America","city":"AR","postal":"72120"},{"lat":"34.569096","lng":"-92.584888","id":3664463,"name":"CVS Pharmacy # 10431","web":"http://www.cvs.com","address":"609 Military Rd.","country":"United States of America","city":"AR","postal":"72015"},{"lat":"34.624436","lng":"-92.498762","id":3664464,"name":"CVS Pharmacy # 10432","web":"http://www.cvs.com","address":"3220 N. Reynolds Rd.","country":"United States of America","city":"AR","postal":"72022"},{"lat":"34.101878","lng":"-118.324914","id":3664465,"name":"CVS Pharmacy # 10433","web":"http://www.cvs.com","address":"6201 Hollywood Blvd., Suite 126","country":"United States of America","city":"CA","postal":"90028"},{"lat":"35.741465","lng":"-95.340376","id":3664466,"name":"CVS Pharmacy # 10437","phone":"918-683-1570","web":"http://www.cvs.com","address":"304 North York St.","country":"United States of America","city":"OK","postal":"74403"},{"lat":"32.42992","lng":"-104.228936","id":3664467,"name":"CVS Pharmacy # 10448","web":"http://www.cvs.com","address":"801 N. Canal St.","country":"United States of America","city":"NM","postal":"88220"},{"lat":"32.783023","lng":"-108.26943","id":3664468,"name":"CVS Pharmacy # 10449","web":"http://www.cvs.com","address":"610 Silver Heights Blvd.","country":"United States of America","city":"NM","postal":"88061"},{"lat":"31.77583","lng":"-106.502637","id":3664469,"name":"CVS Pharmacy # 10451","web":"http://www.cvs.com","address":"2525 N. Mesa St.","country":"United States of America","city":"TX","postal":"79902"},{"lat":"37.137623","lng":"-76.519985","id":3664470,"name":"CVS Pharmacy # 10453","web":"http://www.cvs.com","address":"12755 Jefferson Ave","country":"United States of America","city":"VA","postal":"23602"},{"lat":"38.30091","lng":"-77.482905","id":3664471,"name":"CVS Pharmacy # 10454","web":"http://www.cvs.com","address":"1511 Jefferson Davis Highway","country":"United States of America","city":"VA","postal":"22401"},{"lat":"41.688878","lng":"-83.723823","id":3664472,"name":"CVS Pharmacy # 10457","web":"http://www.cvs.com","address":"7510 Sylvania Ave.","country":"United States of America","city":"OH","postal":"43560"},{"lat":"39.939946","lng":"-74.190222","id":3664473,"name":"CVS Pharmacy # 10458","web":"http://www.cvs.com","address":"300 Atlantic City Blvd.","country":"United States of America","city":"NJ","postal":"8722"},{"lat":"40.767391","lng":"-73.962312","id":3664474,"name":"CVS Pharmacy # 10460","web":"http://www.cvs.com","address":"1172 Third Ave.","country":"United States of America","city":"NY","postal":"10065"},{"lat":"29.554624","lng":"-95.418114","id":3664475,"name":"CVS Pharmacy # 10461","phone":"713-436-1298","web":"http://www.cvs.com","address":"12806 Broadway St.","country":"United States of America","city":"TX","postal":"77584"},{"lat":"41.267551","lng":"-73.442941","id":3664476,"name":"CVS Pharmacy # 10462","phone":"203-544-7094","web":"http://www.cvs.com","address":"720 Branchville Rd","country":"United States of America","city":"CT","postal":"6877"},{"lat":"42.10868","lng":"-87.872763","id":3664477,"name":"CVS Pharmacy # 10467","web":"http://www.cvs.com","address":"3780 Willow Rd.","country":"United States of America","city":"IL","postal":"60062"},{"lat":"42.344597","lng":"-88.27339","id":3664478,"name":"CVS Pharmacy # 10470","web":"http://www.cvs.com","address":"3900 W. Elm St.","country":"United States of America","city":"IL","postal":"60050"},{"lat":"36.125274","lng":"-115.170316","id":3664479,"name":"CVS Pharmacy # 10472","web":"http://www.cvs.com","address":"3300 Las Vegas Blvd South","country":"United States of America","city":"NV","postal":"89109"},{"lat":"47.733956","lng":"-122.636132","id":3664480,"name":"CVS Pharmacy # 10473","web":"http://www.cvs.com","address":"18820 State Hwy 305 Ne","country":"United States of America","city":"WA","postal":"98370"},{"lat":"37.818223","lng":"-122.261787","id":3664481,"name":"CVS Pharmacy # 10475","web":"http://www.cvs.com","address":"2964 Broadway Ave.","country":"United States of America","city":"CA","postal":"94611"},{"lat":"40.235568","lng":"-75.661226","id":3664482,"name":"CVS Pharmacy # 1048","phone":"610-970-7390","web":"http://www.cvs.com","address":"351 W. Schuylkill Rd., Bldg 4","country":"United States of America","city":"PA","postal":"19465"},{"lat":"41.614963","lng":"-93.814347","id":3664483,"name":"CVS Pharmacy # 10480","web":"http://www.cvs.com","address":"14201 Hickman Rd.","country":"United States of America","city":"IA","postal":"50323"},{"lat":"30.438956","lng":"-84.297336","id":3664484,"name":"CVS Pharmacy # 10482","web":"http://www.cvs.com","address":"822 West Pensacola Street","country":"United States of America","city":"FL","postal":"32304"},{"lat":"29.973842","lng":"-90.057678","id":3664485,"name":"CVS Pharmacy # 10483","web":"http://www.cvs.com","address":"1600 Elysian Fields Ave.","country":"United States of America","city":"LA","postal":"70117"},{"lat":"29.558688","lng":"-98.518199","id":3664486,"name":"CVS Pharmacy # 10485","web":"http://www.cvs.com","address":"919 Wurzbach Parkway","country":"United States of America","city":"TX","postal":"78231"},{"lat":"30.534685","lng":"-97.56381","id":3664487,"name":"CVS Pharmacy # 10486","web":"http://www.cvs.com","address":"301 Chris Kelley Blvd.","country":"United States of America","city":"TX","postal":"78634"},{"lat":"42.267608","lng":"-71.119804","id":3664488,"name":"CVS Pharmacy # 1049","phone":"617-364-5449","web":"http://www.cvs.com","address":"942A Hyde Park Avenue","country":"United States of America","city":"MA","postal":"2136"},{"lat":"36.750575","lng":"-95.936765","id":3664489,"name":"CVS Pharmacy # 10491","phone":"918-333-5217","web":"http://www.cvs.com","address":"3711 E. Frank Phillips Blvd.","country":"United States of America","city":"OK","postal":"74006"},{"lat":"42.819298","lng":"-70.909553","id":3664490,"name":"CVS Pharmacy # 10502","web":"http://www.cvs.com","address":"75 Storey Ave.","country":"United States of America","city":"MA","postal":"1950"},{"lat":"33.248184","lng":"-95.911275","id":3664491,"name":"CVS Pharmacy # 10505","web":"http://www.cvs.com","address":"2710 Highway 24","country":"United States of America","city":"TX","postal":"75428"},{"lat":"39.80144","lng":"-94.815083","id":3664492,"name":"CVS Pharmacy # 10506","web":"http://www.cvs.com","address":"3320 North Belt Highway","country":"United States of America","city":"MO","postal":"64506"},{"lat":"32.746805","lng":"-117.249461","id":3664493,"name":"CVS Pharmacy # 10508","web":"http://www.cvs.com","address":"4949 Santa Monica Ave.","country":"United States of America","city":"CA","postal":"92107"},{"lat":"40.936418","lng":"-124.101485","id":3664494,"name":"CVS Pharmacy # 10513","phone":"707-839-8500","web":"http://www.cvs.com","address":"1720 Central Avenue","country":"United States of America","city":"CA","postal":"95519"},{"lat":"36.283784","lng":"-88.306696","id":3664495,"name":"CVS Pharmacy # 10515","web":"http://www.cvs.com","address":"1119 Mineral Wells Ave.","country":"United States of America","city":"TN","postal":"38242"},{"lat":"34.844915","lng":"-86.711722","id":3664496,"name":"CVS Pharmacy # 10516","phone":"256-851-5350","web":"http://www.cvs.com","address":"5859 Highway 53","country":"United States of America","city":"AL","postal":"35749"},{"lat":"35.091541","lng":"-92.436446","id":3664497,"name":"CVS Pharmacy # 10518","web":"http://www.cvs.com","address":"825 Oak St.","country":"United States of America","city":"AR","postal":"72032"},{"lat":"34.623768","lng":"-98.423256","id":3664498,"name":"CVS Pharmacy # 10520","web":"http://www.cvs.com","address":"2107 Nw Cache Road","country":"United States of America","city":"OK","postal":"73501"},{"lat":"33.582375","lng":"-101.870187","id":3664499,"name":"CVS Pharmacy # 10521","web":"http://www.cvs.com","address":"1401 University Avenue","country":"United States of America","city":"TX","postal":"79401"},{"lat":"33.638026","lng":"-111.927228","id":3664500,"name":"CVS Pharmacy # 10529","web":"http://www.cvs.com","address":"7111 East Bell Rd.","country":"United States of America","city":"AZ","postal":"85254"},{"lat":"40.666963","lng":"-73.984822","id":3664501,"name":"CVS Pharmacy # 10530","web":"http://www.cvs.com","address":"475 6Th Ave.","country":"United States of America","city":"NY","postal":"10011"},{"lat":"38.198303","lng":"-85.659805","id":3664502,"name":"CVS Pharmacy # 10532","web":"http://www.cvs.com","address":"3700 Bardstown Rd","country":"United States of America","city":"KY","postal":"40218"},{"lat":"42.696207","lng":"-87.826517","id":3664503,"name":"CVS Pharmacy # 10533","web":"http://www.cvs.com","address":"3915 Durand Ave.","country":"United States of America","city":"WI","postal":"53405"},{"lat":"34.668433","lng":"-92.344882","id":3664504,"name":"CVS Pharmacy # 10534","web":"http://www.cvs.com","address":"8902 Geyer Springs Road","country":"United States of America","city":"AR","postal":"72209"},{"lat":"30.101487","lng":"-97.875","id":3664505,"name":"CVS Pharmacy # 10535","web":"http://www.cvs.com","address":"220 South Fm 1626","country":"United States of America","city":"TX","postal":"78610"},{"lat":"29.967095","lng":"-90.020501","id":3664506,"name":"CVS Pharmacy # 10538","web":"http://www.cvs.com","address":"5000 North Claiborne Ave.","country":"United States of America","city":"LA","postal":"70117"},{"lat":"29.66986","lng":"-98.11957","id":3664507,"name":"CVS Pharmacy # 10541","web":"http://www.cvs.com","address":"2020 S. Walnut Ave.","country":"United States of America","city":"TX","postal":"78130"},{"lat":"38.77468","lng":"-90.737503","id":3664508,"name":"CVS Pharmacy # 10546","web":"http://www.cvs.com","address":"1580 Bryan Rd.","country":"United States of America","city":"MO","postal":"63366"},{"lat":"42.281931","lng":"-85.620682","id":3664509,"name":"CVS Pharmacy # 10548","web":"http://www.cvs.com","address":"2600 W. Michigan Ave.","country":"United States of America","city":"MI","postal":"49006"},{"lat":"41.701463","lng":"-71.42976","id":3664510,"name":"CVS Pharmacy # 10551","phone":"401-739-4330","web":"http://www.cvs.com","address":"198 Buttonwoods Ave,","country":"United States of America","city":"RI","postal":"2886"},{"lat":"40.855419","lng":"-74.832868","id":3664511,"name":"CVS Pharmacy # 10552","web":"http://www.cvs.com","address":"85 Main St.","country":"United States of America","city":"NJ","postal":"7840"},{"lat":"40.588495","lng":"-111.872762","id":3664512,"name":"CVS Pharmacy # 10556","web":"http://www.cvs.com","address":"667 East 9000 South","country":"United States of America","city":"UT","postal":"84070"},{"lat":"31.141843","lng":"-93.26373","id":3664513,"name":"CVS Pharmacy # 10558","phone":"337-239-4249","web":"http://www.cvs.com","address":"304 South 5Th Street","country":"United States of America","city":"LA","postal":"71446"},{"lat":"36.074823","lng":"-95.957952","id":3664514,"name":"CVS Pharmacy # 10561","web":"http://www.cvs.com","address":"6116 South Lewis Ave.","country":"United States of America","city":"OK","postal":"74105"},{"lat":"32.860805","lng":"-96.471018","id":3664515,"name":"CVS Pharmacy # 10562","web":"http://www.cvs.com","address":"4282 Ridge Rd.","country":"United States of America","city":"TX","postal":"75032"},{"lat":"38.434599","lng":"-82.130198","id":3664516,"name":"CVS Pharmacy # 10566","web":"http://www.cvs.com","address":"278 East Main Street","country":"United States of America","city":"WV","postal":"25541"},{"lat":"41.775882","lng":"-73.930268","id":3664517,"name":"CVS Pharmacy # 10571","web":"http://www.cvs.com","address":"4170 Albany Post Rd.","country":"United States of America","city":"NY","postal":"12538"},{"lat":"42.833223","lng":"-71.644301","id":3664518,"name":"CVS Pharmacy # 10572","web":"http://www.cvs.com","address":"309 Nashua St.","country":"United States of America","city":"NH","postal":"3055"},{"lat":"35.050599","lng":"-80.771069","id":3664519,"name":"CVS Pharmacy # 10574","web":"http://www.cvs.com","address":"4908 Houston Field Court","country":"United States of America","postal":"28277"},{"lat":"30.824069","lng":"-88.069937","id":3664520,"name":"CVS Pharmacy # 10575","phone":"251-675-2747","web":"http://www.cvs.com","address":"24 Saraland Blvd., N,","country":"United States of America","city":"AL","postal":"36571"},{"lat":"32.579382","lng":"-97.074332","id":3664521,"name":"CVS Pharmacy # 10576","web":"http://www.cvs.com","address":"3802 East Broad St.","country":"United States of America","city":"TX","postal":"76063"},{"lat":"40.374343","lng":"-111.785728","id":3664522,"name":"CVS Pharmacy # 10577","web":"http://www.cvs.com","address":"495 East State Rd.","country":"United States of America","city":"UT","postal":"84003"},{"lat":"29.468488","lng":"-98.463337","id":3664523,"name":"CVS Pharmacy # 10579","web":"http://www.cvs.com","address":"4600 Broadway St.","country":"United States of America","city":"TX","postal":"78209"},{"lat":"33.175154","lng":"-96.767275","id":3664524,"name":"CVS Pharmacy # 10581","web":"http://www.cvs.com","address":"12740 Eldorado Pkwy.","country":"United States of America","city":"TX","postal":"75035"},{"lat":"31.084766","lng":"-97.78474","id":3664525,"name":"CVS Pharmacy # 10585","web":"http://www.cvs.com","address":"3300 W. Stan Schlueter Loop","country":"United States of America","city":"TX","postal":"76549"},{"lat":"31.057327","lng":"-97.65945","id":3664526,"name":"CVS Pharmacy # 10587","web":"http://www.cvs.com","address":"800 E Fm 2410","country":"United States of America","city":"TX","postal":"76548"},{"lat":"38.38015","lng":"-86.643683","id":3664527,"name":"CVS Pharmacy # 10591","web":"http://www.cvs.com","address":"16088 Spring Mill Station Dr.","country":"United States of America","city":"IN","postal":"46074"},{"lat":"42.09032","lng":"-86.485788","id":3664528,"name":"CVS Pharmacy # 10592","web":"http://www.cvs.com","address":"2506 Niles Avenue","country":"United States of America","city":"MI","postal":"49085"},{"lat":"29.977227","lng":"-90.096159","id":3664529,"name":"CVS Pharmacy # 10594","web":"http://www.cvs.com","address":"500 N. Carrollton Ave.","country":"United States of America","city":"LA","postal":"70119"},{"lat":"29.336905","lng":"-98.551973","id":3664530,"name":"CVS Pharmacy # 10597","web":"http://www.cvs.com","address":"8731 Poteet Jourdanton Freeway","country":"United States of America","city":"TX","postal":"78224"},{"lat":"29.377625","lng":"-95.00159","id":3664531,"name":"CVS Pharmacy # 10598","web":"http://www.cvs.com","address":"204 Newman Rd.","country":"United States of America","city":"TX","postal":"77568"},{"lat":"40.93923","lng":"-73.83299","id":3664532,"name":"CVS Pharmacy # 106","phone":"914-961-6030","web":"http://www.cvs.com","address":"114 Pondfield Road","country":"United States of America","city":"NY","postal":"10708"},{"lat":"29.939547","lng":"-95.724164","id":3664533,"name":"CVS Pharmacy # 10602","web":"http://www.cvs.com","address":"10515 Fry Rd., Building A1","country":"United States of America","city":"TX","postal":"77433"},{"lat":"29.496419","lng":"-95.438249","id":3664534,"name":"CVS Pharmacy # 10603","web":"http://www.cvs.com","address":"15027 State Hwy 6","country":"United States of America","city":"TX","postal":"77583"},{"lat":"29.532923","lng":"-95.383576","id":3664535,"name":"CVS Pharmacy # 10604","web":"http://www.cvs.com","address":"4489 County Road 94","country":"United States of America","city":"TX","postal":"77578"},{"lat":"39.993071","lng":"-74.210832","id":3664536,"name":"CVS Pharmacy # 10608","web":"http://www.cvs.com","address":"1357 Lakewood Road","country":"United States of America","city":"NJ","postal":"8755"},{"lat":"39.810711","lng":"-75.550115","id":3664537,"name":"CVS Pharmacy # 10609","web":"http://www.cvs.com","address":"4020 Concord Pike","country":"United States of America","city":"DE","postal":"19803"},{"lat":"40.758794","lng":"-74.039547","id":3664538,"name":"CVS Pharmacy # 10611","web":"http://www.cvs.com","address":"1000 West St. George'S Ave.","country":"United States of America","city":"NJ","postal":"7036"},{"lat":"40.7935","lng":"-73.82691","id":3664539,"name":"CVS Pharmacy # 10612","web":"http://www.cvs.com","address":"65 5Th Ave.","country":"United States of America","city":"NY","postal":"10003"},{"lat":"40.751804","lng":"-73.996308","id":3664540,"name":"CVS Pharmacy # 10613","web":"http://www.cvs.com","address":"5 Penn Plaza","country":"United States of America","postal":"10001"},{"lat":"33.39338","lng":"-111.670162","id":3664541,"name":"CVS Pharmacy # 10616","web":"http://www.cvs.com","address":"7547 E. Southern Ave.","country":"United States of America","city":"AZ","postal":"85209"},{"lat":"40.432465","lng":"-111.785927","id":3664542,"name":"CVS Pharmacy # 10618","web":"http://www.cvs.com","address":"5326 West 11000 North","country":"United States of America","city":"UT","postal":"84003"},{"lat":"47.60958","lng":"-122.201779","id":3664543,"name":"CVS Pharmacy # 10619","web":"http://www.cvs.com","address":"107 Bellevue Way, Se","country":"United States of America","city":"WA","postal":"98004"},{"lat":"39.830704","lng":"-74.998101","id":3664544,"name":"CVS Pharmacy # 1062","phone":"856-435-3733","web":"http://www.cvs.com","address":"109 Berlin Rd.","country":"United States of America","city":"NJ","postal":"8021"},{"lat":"21.278037","lng":"-157.755815","id":3664545,"name":"CVS Pharmacy # 10620","web":"http://www.cvs.com","address":"5156 Kalanianaole Hwy","country":"United States of America","city":"HI","postal":"96821"},{"lat":"21.280497","lng":"-157.830203","id":3664546,"name":"CVS Pharmacy # 10621","web":"http://www.cvs.com","address":"2155 Kalakaua Ave., Suite 102","country":"United States of America","city":"HI","postal":"96815"},{"lat":"43.602481","lng":"-83.915566","id":3664547,"name":"CVS Pharmacy # 10626","web":"http://www.cvs.com","address":"101 North Euclid Ave.","country":"United States of America","city":"MI","postal":"48706"},{"lat":"42.226048","lng":"-88.32746","id":3664548,"name":"CVS Pharmacy # 10628","web":"http://www.cvs.com","address":"177 West Virginia Street","country":"United States of America","city":"IL","postal":"60014"},{"lat":"30.324926","lng":"-95.496341","id":3664549,"name":"CVS Pharmacy # 10631","web":"http://www.cvs.com","address":"3711 W. Davis St.","country":"United States of America","city":"TX","postal":"77304"},{"lat":"25.782651","lng":"-80.189969","id":3664550,"name":"CVS Pharmacy # 10632","web":"http://www.cvs.com","address":"888 Biscayne Blvd, Suite #Cu3A","country":"United States of America","city":"FL","postal":"33132"},{"lat":"32.81154","lng":"-96.781369","id":3664551,"name":"CVS Pharmacy # 10634","web":"http://www.cvs.com","address":"2350 N. Fitzhugh Avenue","country":"United States of America","city":"TX","postal":"75204"},{"lat":"32.964663","lng":"-96.341188","id":3664552,"name":"CVS Pharmacy # 10635","web":"http://www.cvs.com","address":"476 W. 1-30","country":"United States of America","city":"TX","postal":"75189"},{"lat":"29.540032","lng":"-95.752441","id":3664553,"name":"CVS Pharmacy # 10637","web":"http://www.cvs.com","address":"6750 Reading Road","country":"United States of America","city":"TX","postal":"77469"},{"lat":"29.610551","lng":"-95.249119","id":3664554,"name":"CVS Pharmacy # 10638","phone":"713-987-9479","web":"http://www.cvs.com","address":"9410 Fuqua St.","country":"United States of America","city":"TX","postal":"77075"},{"lat":"32.001779","lng":"-102.137233","id":3664555,"name":"CVS Pharmacy # 10643","web":"http://www.cvs.com","address":"4401 Andrews Hwy","country":"United States of America","city":"TX","postal":"79703"},{"lat":"36.059148","lng":"-89.394218","id":3664556,"name":"CVS Pharmacy # 10645","web":"http://www.cvs.com","address":"2300 Lake Road","country":"United States of America","city":"TN","postal":"38024"},{"lat":"40.661228","lng":"-73.999715","id":3664557,"name":"CVS Pharmacy # 10654","web":"http://www.cvs.com","address":"757 3Rd Ave.","country":"United States of America","city":"NY","postal":"10017"},{"lat":"41.898439","lng":"-88.332419","id":3664558,"name":"CVS Pharmacy # 10660","web":"http://www.cvs.com","address":"1500 Lincoln Hwy.","country":"United States of America","city":"IL","postal":"60174"},{"lat":"30.413065","lng":"-97.691363","id":3664559,"name":"CVS Pharmacy # 10661","web":"http://www.cvs.com","address":"1801 W. Parmer Lane","country":"United States of America","city":"TX","postal":"78727"},{"lat":"30.282551","lng":"-95.567356","id":3664560,"name":"CVS Pharmacy # 10664","web":"http://www.cvs.com","address":"2180 Woodforest Parkway N.","country":"United States of America","city":"TX","postal":"77316"},{"lat":"32.997754","lng":"-96.696057","id":3664561,"name":"CVS Pharmacy # 10665","web":"http://www.cvs.com","address":"1555 East Renner Rd.","country":"United States of America","city":"TX","postal":"75082"},{"lat":"35.820904","lng":"-90.706361","id":3664562,"name":"CVS Pharmacy # 10666","web":"http://www.cvs.com","address":"110 Southwest Dr.","country":"United States of America","city":"AR","postal":"72401"},{"lat":"32.903227","lng":"-97.186834","id":3664563,"name":"CVS Pharmacy # 10668","web":"http://www.cvs.com","address":"9200 N. Tarrant Pkwy.","country":"United States of America","city":"TX","postal":"76180"},{"lat":"32.815335","lng":"-96.828378","id":3664564,"name":"CVS Pharmacy # 10670","web":"http://www.cvs.com","address":"4930 Maple Ave.","country":"United States of America","city":"TX","postal":"75235"},{"lat":"29.656363","lng":"-95.682349","id":3664565,"name":"CVS Pharmacy # 10671","web":"http://www.cvs.com","address":"10420 Fm 1464","country":"United States of America","city":"TX","postal":"77407"},{"lat":"33.28302","lng":"-96.560874","id":3664566,"name":"CVS Pharmacy # 10673","phone":"972-837-1061","web":"http://www.cvs.com","address":"2600 Sam Rayburn Hwy,","country":"United States of America","city":"TX","postal":"75454"},{"lat":"33.217428","lng":"-96.696605","id":3664567,"name":"CVS Pharmacy # 10675","web":"http://www.cvs.com","address":"6161 W. University Dr.","country":"United States of America","city":"TX","postal":"75071"},{"lat":"39.166871","lng":"-86.532794","id":3664568,"name":"CVS Pharmacy # 10676","web":"http://www.cvs.com","address":"121 East Kirkwood Avenue","country":"United States of America","city":"IN","postal":"47408"},{"lat":"41.833409","lng":"-88.102592","id":3664569,"name":"CVS Pharmacy # 10677","web":"http://www.cvs.com","address":"2000 S. Naperville Road","country":"United States of America","city":"IL","postal":"60189"},{"lat":"36.05272","lng":"-90.50574","id":3664570,"name":"CVS Pharmacy # 10678","web":"http://www.cvs.com","address":"1501 West Kings Highway","country":"United States of America","city":"AR","postal":"72450"},{"lat":"42.588212","lng":"-72.214963","id":3664571,"name":"CVS Pharmacy # 1068","phone":"978-249-7928","web":"http://www.cvs.com","address":"1653 Main St.","country":"United States of America","city":"MA","postal":"1331"},{"lat":"42.228282","lng":"-71.522325","id":3664572,"name":"CVS Pharmacy # 10681","web":"http://www.cvs.com","address":"61 Main Street","country":"United States of America","city":"MA","postal":"1748"},{"lat":"35.789263","lng":"-78.676164","id":3664573,"name":"CVS Pharmacy # 10682","web":"http://www.cvs.com","address":"3001 Hillsborough St., Suite 100","country":"United States of America","city":"NC","postal":"27607"},{"lat":"30.562746","lng":"-98.274778","id":3664574,"name":"CVS Pharmacy # 10691","web":"http://www.cvs.com","address":"302 Gateway North","country":"United States of America","city":"TX","postal":"78654"},{"lat":"40.728942","lng":"-73.444837","id":3664575,"name":"CVS Pharmacy # 1073","phone":"516-694-6246","web":"http://www.cvs.com","address":"450 Main St.","country":"United States of America","city":"NY","postal":"11735"},{"lat":"32.250205","lng":"-111.013809","id":3664576,"name":"CVS Pharmacy # 10742","web":"http://www.cvs.com","address":"2385 N. Silverbell Road","country":"United States of America","city":"AZ","postal":"85745"},{"lat":"47.889359","lng":"-122.259202","id":3664577,"name":"CVS Pharmacy # 10747","web":"http://www.cvs.com","address":"11918 Airport Rd.","country":"United States of America","city":"WA","postal":"98204"},{"lat":"29.526073","lng":"-98.71763","id":3664578,"name":"CVS Pharmacy # 10750","web":"http://www.cvs.com","address":"9050 Fm 1560 N","country":"United States of America","city":"TX","postal":"78254"},{"lat":"29.685502","lng":"-95.813235","id":3664579,"name":"CVS Pharmacy # 10752","web":"http://www.cvs.com","address":"25151 Fulshear Gaston Rd.","country":"United States of America","city":"TX","postal":"77406"},{"lat":"29.879362","lng":"-95.682703","id":3664580,"name":"CVS Pharmacy # 10753","web":"http://www.cvs.com","address":"17977 Fm 529 Road","country":"United States of America","city":"TX","postal":"77095"},{"lat":"47.490452","lng":"-94.87975","id":3664581,"name":"CVS Pharmacy # 10756","web":"http://www.cvs.com","address":"2312 Bemidji Ave. N","country":"United States of America","city":"MN","postal":"56601"},{"lat":"38.311444","lng":"-85.768785","id":3664582,"name":"CVS Pharmacy # 10757","web":"http://www.cvs.com","address":"1404 Blackiston Mill Rd.","country":"United States of America","city":"IN","postal":"47129"},{"lat":"39.117846","lng":"-90.326421","id":3664583,"name":"CVS Pharmacy # 10759","web":"http://www.cvs.com","address":"303 South State Street","country":"United States of America","city":"IL","postal":"62052"},{"lat":"40.413966","lng":"-79.922996","id":3664584,"name":"CVS Pharmacy # 10767","web":"http://www.cvs.com","address":"4664 Browns Hill Rd.","country":"United States of America","city":"PA","postal":"15217"},{"lat":"32.983103","lng":"-97.382864","id":3664585,"name":"CVS Pharmacy # 10775","web":"http://www.cvs.com","address":"13901 Sendera Ranch Blvd.","country":"United States of America","city":"TX","postal":"76052"},{"lat":"34.741958","lng":"-92.341585","id":3664586,"name":"CVS Pharmacy # 10779","web":"http://www.cvs.com","address":"1122 S. University Avenue","country":"United States of America","city":"AR","postal":"72204"},{"lat":"40.003499","lng":"-86.069848","id":3664587,"name":"CVS Pharmacy # 1078","phone":"317-569-1392","web":"http://www.cvs.com","address":"14835 Sunny Dell Lane","country":"United States of America","city":"IN","postal":"46062"},{"lat":"43.336291","lng":"-83.738165","id":3664588,"name":"CVS Pharmacy # 10790","web":"http://www.cvs.com","address":"111 North Main St.","country":"United States of America","city":"MI","postal":"48734"},{"lat":"25.981208","lng":"-80.225623","id":3664589,"name":"CVS Pharmacy # 1081","phone":"954-961-5677","web":"http://www.cvs.com","address":"6890 Miramar Pkwy","country":"United States of America","city":"FL","postal":"33023"},{"lat":"37.990112","lng":"-85.716075","id":3664590,"name":"CVS Pharmacy # 10812","web":"http://www.cvs.com","address":"157 South Buckman Street","country":"United States of America","city":"KY","postal":"40165"},{"lat":"36.334412","lng":"-94.143326","id":3664591,"name":"CVS Pharmacy # 10816","web":"http://www.cvs.com","address":"1749 W. Walnut St.","country":"United States of America","city":"AR","postal":"72756"},{"lat":"31.55087","lng":"-97.124361","id":3664592,"name":"CVS Pharmacy # 10818","web":"http://www.cvs.com","address":"820 S 5Th St.","country":"United States of America","city":"TX","postal":"76706"},{"lat":"27.988094","lng":"-82.729873","id":3664593,"name":"CVS Pharmacy # 1083","phone":"727-799-0910","web":"http://www.cvs.com","address":"23682 Us Hwy 19 N","country":"United States of America","city":"FL","postal":"33765"},{"lat":"31.341306","lng":"-109.558233","id":3664594,"name":"CVS Pharmacy # 10859","web":"http://www.cvs.com","address":"286 7Th Street","country":"United States of America","city":"AZ","postal":"85607"},{"lat":"33.957124","lng":"-83.377914","id":3664595,"name":"CVS Pharmacy # 10865","web":"http://www.cvs.com","address":"170 West Broad St.","country":"United States of America","city":"GA","postal":"30601"},{"lat":"32.92284","lng":"-96.955302","id":3664596,"name":"CVS Pharmacy # 10880","web":"http://www.cvs.com","address":"8580 N. Macarthur Blvd","country":"United States of America","city":"TX","postal":"75063"},{"lat":"32.986396","lng":"-97.18245","id":3664597,"name":"CVS Pharmacy # 10881","web":"http://www.cvs.com","address":"35 Arta Drive","country":"United States of America","city":"TX","postal":"76262"},{"lat":"29.649201","lng":"-82.339331","id":3664598,"name":"CVS Pharmacy # 10883","web":"http://www.cvs.com","address":"311 Sw 13Th St., Unit 101","country":"United States of America","city":"FL","postal":"32601"},{"lat":"32.871809","lng":"-97.34169","id":3664599,"name":"CVS Pharmacy # 10886","web":"http://www.cvs.com","address":"7220 Blue Mound Road","country":"United States of America","city":"TX","postal":"76131"},{"lat":"41.774546","lng":"-72.638731","id":3664600,"name":"CVS Pharmacy # 1089","phone":"860-290-2090","web":"http://www.cvs.com","address":"20 Burnside Avenue","country":"United States of America","city":"CT","postal":"6108"},{"lat":"42.40299","lng":"-71.025632","id":3664601,"name":"CVS Pharmacy # 109","phone":"617-884-1095","web":"http://www.cvs.com","address":"1010 Revere Beach Pkwy","country":"United States of America","postal":"2150"},{"lat":"30.012639","lng":"-95.755957","id":3664602,"name":"CVS Pharmacy # 10906","web":"http://www.cvs.com","address":"22125 Cumberland Ridge Dr.","country":"United States of America","city":"TX","postal":"77433"},{"lat":"41.992346","lng":"-76.528438","id":3664603,"name":"CVS Pharmacy # 1091","phone":"570-888-5657","web":"http://www.cvs.com","address":"430 Keystone Ave","country":"United States of America","city":"PA","postal":"18840"},{"lat":"32.720157","lng":"-96.822449","id":3664604,"name":"CVS Pharmacy # 10911","web":"http://www.cvs.com","address":"150 East Illinois Ave.","country":"United States of America","city":"TX","postal":"75216"},{"lat":"34.106716","lng":"-117.609415","id":3664605,"name":"CVS Pharmacy # 10914","web":"http://www.cvs.com","address":"8956 Foothill Blvd","country":"United States of America","city":"CA","postal":"91730"},{"lat":"34.083395","lng":"-118.353591","id":3664606,"name":"CVS Pharmacy # 10916","web":"http://www.cvs.com","address":"7500 Melrose Ave.","country":"United States of America","city":"CA","postal":"90046"},{"lat":"34.135585","lng":"-118.132752","id":3664607,"name":"CVS Pharmacy # 10917","web":"http://www.cvs.com","address":"603 S. Lake Avenue","country":"United States of America","city":"CA","postal":"91106"},{"lat":"34.183503","lng":"-118.784821","id":3664608,"name":"CVS Pharmacy # 10918","web":"http://www.cvs.com","address":"632 Lindero Canyon Rd.","country":"United States of America","city":"CA","postal":"91377"},{"lat":"32.74704","lng":"-116.98799","id":3664609,"name":"CVS Pharmacy # 10919","web":"http://www.cvs.com","address":"9665 Campo Rd.","country":"United States of America","city":"CA","postal":"91977"},{"lat":"40.701186","lng":"-73.551527","id":3664610,"name":"CVS Pharmacy # 1092","phone":"516-481-6701","web":"http://www.cvs.com","address":"2034 North Jerusalem Road","country":"United States of America","city":"NY","postal":"11710"},{"lat":"33.509804","lng":"-111.996644","id":3664611,"name":"CVS Pharmacy # 10920","web":"http://www.cvs.com","address":"3933 E. Camelback Rd.","country":"United States of America","city":"AZ","postal":"85018"},{"lat":"35.295352","lng":"-119.057252","id":3664612,"name":"CVS Pharmacy # 10921","web":"http://www.cvs.com","address":"6601 Stine Road","country":"United States of America","city":"CA","postal":"93313"},{"lat":"32.77778","lng":"-115.568855","id":3664613,"name":"CVS Pharmacy # 10931","web":"http://www.cvs.com","address":"1745 S. Imperial Ave.","country":"United States of America","city":"CA","postal":"92243"},{"lat":"32.355764","lng":"-93.713768","id":3664614,"name":"CVS Pharmacy # 10941","web":"http://www.cvs.com","address":"10460 Norris Ferry Road","country":"United States of America","city":"LA","postal":"71106"},{"lat":"26.286986","lng":"-98.314088","id":3664615,"name":"CVS Pharmacy # 10944","web":"http://www.cvs.com","address":"105 Alton Blvd. N.","country":"United States of America","city":"TX","postal":"78573"},{"lat":"35.958547","lng":"-86.52016","id":3664616,"name":"CVS Pharmacy # 10949","web":"http://www.cvs.com","address":"11563 Old Nashville Hwy.","country":"United States of America","city":"TN","postal":"37167"},{"lat":"38.724835","lng":"-90.123096","id":3664617,"name":"CVS Pharmacy # 10951","web":"http://www.cvs.com","address":"3319 Nameoki Rd.","country":"United States of America","city":"IL","postal":"62040"},{"lat":"41.728265","lng":"-72.616067","id":3664618,"name":"CVS Pharmacy # 1101","phone":"860-569-1418","web":"http://www.cvs.com","address":"16 Main St.","country":"United States of America","city":"CT","postal":"6118"},{"lat":"43.083737","lng":"-89.323487","id":3664619,"name":"CVS Pharmacy # 1102","phone":"860-243-3328","web":"http://www.cvs.com","address":"341 Cottage Grove Rd.","country":"United States of America","postal":"6002"},{"lat":"44.479409","lng":"-73.21286","id":3664620,"name":"CVS Pharmacy # 11037","web":"http://www.cvs.com","address":"35 Church St","country":"United States of America","city":"VT","postal":"5401"},{"lat":"33.099722","lng":"-96.629552","id":3664621,"name":"CVS Pharmacy # 1104","phone":"214-383-9765","web":"http://www.cvs.com","address":"1540 E. Main St.","country":"United States of America","city":"TX","postal":"75002"},{"lat":"30.084932","lng":"-94.142696","id":3664622,"name":"CVS Pharmacy # 1108","phone":"409-832-8001","web":"http://www.cvs.com","address":"3890 Phelan Blvd.","country":"United States of America","city":"TX","postal":"77707"},{"lat":"39.128841","lng":"-82.982126","id":3664623,"name":"CVS Pharmacy # 11086","web":"http://www.cvs.com","address":"302 E Emmitt Ave.","country":"United States of America","city":"OH","postal":"45690"},{"lat":"41.373302","lng":"-73.414826","id":3664624,"name":"CVS Pharmacy # 1109","phone":"203-794-1745","web":"http://www.cvs.com","address":"7 Durant Ave.","country":"United States of America","city":"CT","postal":"6801"},{"lat":"27.470317","lng":"-80.335298","id":3664625,"name":"CVS Pharmacy # 111","phone":"772-461-7049","web":"http://www.cvs.com","address":"1891 N. Us Hwy 1","country":"United States of America","city":"FL","postal":"34946"},{"lat":"42.256962","lng":"-72.248256","id":3664626,"name":"CVS Pharmacy # 1111","phone":"413-967-7218","web":"http://www.cvs.com","address":"104 West St.","country":"United States of America","city":"MA","postal":"1082"},{"lat":"40.751921","lng":"-73.996262","id":3664627,"name":"CVS Pharmacy # 1113","phone":"718-426-2508","web":"http://www.cvs.com","address":"89-11 Northern Blvd.","country":"United States of America","postal":"11372"},{"lat":"40.755239","lng":"-73.114281","id":3664628,"name":"CVS Pharmacy # 1117","phone":"613-567-1061","web":"http://www.cvs.com","address":"4621 Sunrise Hwy, Bohemia Shopping Plaza","country":"United States of America","city":"NY","postal":"11716"},{"lat":"30.654006","lng":"-88.493093","id":3664629,"name":"CVS Pharmacy # 1119","phone":"228-588-6053","web":"http://www.cvs.com","address":"7021 Hwy 614, Po Box 789","country":"United States of America","postal":"39555"},{"lat":"40.045782","lng":"-75.234188","id":3664630,"name":"CVS Pharmacy # 1122","phone":"215-483-4130","web":"http://www.cvs.com","address":"7219 Ridge Ave. At Domino Lane N.","country":"United States of America","postal":"19128"},{"lat":"41.667288","lng":"-71.914367","id":3664631,"name":"CVS Pharmacy # 1125","phone":"860-564-0082","web":"http://www.cvs.com","address":"10 Lathrop Rd","country":"United States of America","city":"CT","postal":"6374"},{"lat":"25.81242","lng":"-80.1231","id":3664632,"name":"CVS Pharmacy # 1127","phone":"305-667-1119","web":"http://www.cvs.com","address":"6780 S W 40Th St","country":"United States of America","city":"FL","postal":"33155"},{"lat":"45.031852","lng":"-93.337129","id":3664633,"name":"CVS Pharmacy # 1129","phone":"763-535-2459","web":"http://www.cvs.com","address":"4152 Lakeland Ave. North","country":"United States of America","city":"MN","postal":"55422"},{"lat":"42.700343","lng":"-73.111453","id":3664634,"name":"CVS Pharmacy # 1131","phone":"413-664-8512","web":"http://www.cvs.com","address":"Veterans Memorial Dr, Big Y S/C","country":"United States of America","city":"MA","postal":"1247"},{"lat":"39.95725","lng":"-85.91771","id":3664635,"name":"CVS Pharmacy # 1138","phone":"317-585-2702","web":"http://www.cvs.com","address":"11591 Olio Rd.","country":"United States of America","city":"IN","postal":"46037"},{"lat":"33.73184","lng":"-79.024981","id":3664636,"name":"CVS Pharmacy # 1140","phone":"843-236-6300","web":"http://www.cvs.com","address":"101 Fetlock Dr.","country":"United States of America","city":"SC","postal":"29588"},{"lat":"43.190704","lng":"-77.499455","id":3664637,"name":"CVS Pharmacy # 1142","phone":"585-671-7693","web":"http://www.cvs.com","address":"1900 Empire Boulevard","country":"United States of America","city":"NY","postal":"14580"},{"lat":"42.566754","lng":"-71.108378","id":3664638,"name":"CVS Pharmacy # 1143","phone":"508-664-2093","web":"http://www.cvs.com","address":"22 Main Street","country":"United States of America","city":"MA","postal":"1864"},{"lat":"35.987797","lng":"-95.798085","id":3664639,"name":"CVS Pharmacy # 1145","phone":"918-455-0089","web":"http://www.cvs.com","address":"751 W. Tucson St (121St)","country":"United States of America","city":"OK","postal":"74011"},{"lat":"41.480444","lng":"-72.905647","id":3664640,"name":"CVS Pharmacy # 1148","phone":"203-250-9703","web":"http://www.cvs.com","address":"905 South Main St.","country":"United States of America","city":"CT","postal":"6410"},{"lat":"41.115164","lng":"-73.415399","id":3664641,"name":"CVS Pharmacy # 1149","phone":"203-866-0949","web":"http://www.cvs.com","address":"696 West Ave.","country":"United States of America","city":"CT","postal":"6850"},{"lat":"41.539254","lng":"-72.997251","id":3664642,"name":"CVS Pharmacy # 1151","phone":"203-596-0905","web":"http://www.cvs.com","address":"464 Reidville Drive","country":"United States of America","city":"CT","postal":"6705"},{"lat":"41.325773","lng":"-72.193896","id":3664643,"name":"CVS Pharmacy # 1152","phone":"860-691-0380","web":"http://www.cvs.com","address":"58 Pennsylvania Ave.","country":"United States of America","city":"CT","postal":"6357"},{"lat":"41.193454","lng":"-73.159742","id":3664644,"name":"CVS Pharmacy # 1153","phone":"203-330-8284","web":"http://www.cvs.com","address":"1875 Boston Ave, Cvs Plaza","country":"United States of America","city":"CT","postal":"6610"},{"lat":"41.755394","lng":"-72.766722","id":3664645,"name":"CVS Pharmacy # 1156","phone":"860-561-0466","web":"http://www.cvs.com","address":"1240 Farmington Avenue","country":"United States of America","city":"CT","postal":"6107"},{"lat":"30.517985","lng":"-97.654574","id":3664646,"name":"CVS Pharmacy # 116","phone":"512-244-1069","web":"http://www.cvs.com","address":"2001 E. Palm Valley Blvd.","country":"United States of America","city":"TX","postal":"78665"},{"lat":"41.780341","lng":"-88.373828","id":3664647,"name":"CVS Pharmacy # 1161","phone":"630-907-2041","web":"http://www.cvs.com","address":"2360 W. Indian Trail","country":"United States of America","city":"IL","postal":"60506"},{"lat":"41.56462","lng":"-88.162502","id":3664648,"name":"CVS Pharmacy # 1170","phone":"815-267-8130","web":"http://www.cvs.com","address":"3200 Caton Farm","country":"United States of America","city":"IL","postal":"60431"},{"lat":"42.410532","lng":"-88.033007","id":3664649,"name":"CVS Pharmacy # 1172","phone":"847-356-4302","web":"http://www.cvs.com","address":"2020 E Grand Ave.","country":"United States of America","city":"IL","postal":"60046"},{"lat":"38.613661","lng":"-122.870748","id":3664650,"name":"CVS Pharmacy # 1173","phone":"707-433-3389","web":"http://www.cvs.com","address":"455 Center St","country":"United States of America","city":"CA","postal":"95448"},{"lat":"42.775212","lng":"-71.444643","id":3664651,"name":"CVS Pharmacy # 1175","phone":"603-889-8631","web":"http://www.cvs.com","address":"77 Derry Rd, Hudson Mall","country":"United States of America","city":"NH","postal":"3051"},{"lat":"33.788925","lng":"-118.320324","id":3664652,"name":"CVS Pharmacy # 1176","phone":"310-517-8520","web":"http://www.cvs.com","address":"25829 Narbonne Ave.","country":"United States of America","city":"CA","postal":"90717"},{"lat":"39.03906","lng":"-77.056874","id":3664653,"name":"CVS Pharmacy # 1177","phone":"301-942-1791","web":"http://www.cvs.com","address":"11190 Viers Mill Road","country":"United States of America","postal":"20902"},{"lat":"40.531604","lng":"-75.499292","id":3664654,"name":"CVS Pharmacy # 1178","phone":"610-965-5980","web":"http://www.cvs.com","address":"702 Chestnut St.","country":"United States of America","city":"PA","postal":"18049"},{"lat":"41.371074","lng":"-75.735534","id":3664655,"name":"CVS Pharmacy # 1188","phone":"570-457-2182","web":"http://www.cvs.com","address":"101 S. Main St.","country":"United States of America","city":"PA","postal":"18518"},{"lat":"42.501716","lng":"-71.070364","id":3664656,"name":"CVS Pharmacy # 119","phone":"781-245-2270","web":"http://www.cvs.com","address":"451 Main Street","country":"United States of America","city":"MA","postal":"1880"},{"lat":"40.803105","lng":"-72.804643","id":3664657,"name":"CVS Pharmacy # 1190","phone":"516-878-0733","web":"http://www.cvs.com","address":"311 Main St, Cvs Plaza","country":"United States of America","city":"NY","postal":"11934"},{"lat":"40.181965","lng":"-75.133621","id":3664658,"name":"CVS Pharmacy # 1191","phone":"215-682-2015","web":"http://www.cvs.com","address":"314 Horsham Road, Unit B","country":"United States of America","city":"PA","postal":"19044"},{"lat":"40.106062","lng":"-75.123544","id":3664659,"name":"CVS Pharmacy # 1193","phone":"215-886-2926","web":"http://www.cvs.com","address":"835 Old York Rd.,","country":"United States of America","city":"PA","postal":"19046"},{"lat":"40.538214","lng":"-74.588526","id":3664660,"name":"CVS Pharmacy # 1195","phone":"908-725-8088","web":"http://www.cvs.com","address":"321 South Main Street","country":"United States of America","city":"NJ","postal":"8835"},{"lat":"40.06763","lng":"-75.19782","id":3664661,"name":"CVS Pharmacy # 1196","phone":"215-242-0673","web":"http://www.cvs.com","address":"7700 Germantown Avenue","country":"United States of America","city":"PA","postal":"19118"},{"lat":"37.408033","lng":"-77.657886","id":3664662,"name":"CVS Pharmacy # 12","phone":"804-739-2198","web":"http://www.cvs.com","address":"13800 Hull Street Rd.","country":"United States of America","city":"VA","postal":"23112"},{"lat":"34.140707","lng":"-80.938623","id":3664663,"name":"CVS Pharmacy # 1200","phone":"803-788-0535","web":"http://www.cvs.com","address":"1002 Sams Crossing Rd.","country":"United States of America","city":"SC","postal":"29229"},{"lat":"36.071892","lng":"-114.954674","id":3664664,"name":"CVS Pharmacy # 121","phone":"702-558-5101","web":"http://www.cvs.com","address":"1402 E. Lake Mead Pkwy.","country":"United States of America","city":"NV","postal":"89015"},{"lat":"40.405249","lng":"-74.004517","id":3664665,"name":"CVS Pharmacy # 1214","phone":"732-872-2226","web":"http://www.cvs.com","address":"470 Route 36","country":"United States of America","city":"NJ","postal":"7732"},{"lat":"36.165244","lng":"-80.136105","id":3664666,"name":"CVS Pharmacy # 1218","phone":"336-595-3640","web":"http://www.cvs.com","address":"5210 Reidsville Rd.","country":"United States of America","city":"NC","postal":"27051"},{"lat":"41.068696","lng":"-73.526647","id":3664667,"name":"CVS Pharmacy # 1219","phone":"203-921-1317","web":"http://www.cvs.com","address":"229 Hope Street","country":"United States of America","city":"CT","postal":"6906"},{"lat":"40.763266","lng":"-73.331102","id":3664668,"name":"CVS Pharmacy # 1222","phone":"631-667-6557","web":"http://www.cvs.com","address":"1944 Deer Park Ave, Deer Park S/C","country":"United States of America","city":"NY","postal":"11729"},{"lat":"39.890855","lng":"-83.086971","id":3664669,"name":"CVS Pharmacy # 1223","phone":"614-875-0261","web":"http://www.cvs.com","address":"3575 Broadway","country":"United States of America","city":"OH","postal":"43123"},{"lat":"40.922148","lng":"-73.764479","id":3664670,"name":"CVS Pharmacy # 1233","phone":"914-833-0818","web":"http://www.cvs.com","address":"2444 Boston Post Road","country":"United States of America","city":"NY","postal":"10538"},{"lat":"42.124994","lng":"-72.74832","id":3664671,"name":"CVS Pharmacy # 1234","phone":"413-568-4214","web":"http://www.cvs.com","address":"208 Elm St.","country":"United States of America","city":"MA","postal":"1085"},{"lat":"39.986536","lng":"-75.312379","id":3664672,"name":"CVS Pharmacy # 1237","phone":"610-853-1867","web":"http://www.cvs.com","address":"41 West Eagle Road","country":"United States of America","city":"PA","postal":"19083"},{"lat":"42.186191","lng":"-71.30904","id":3664673,"name":"CVS Pharmacy # 1238","phone":"508-359-7995","web":"http://www.cvs.com","address":"555 Main Street","country":"United States of America","city":"MA","postal":"2052"},{"lat":"42.675841","lng":"-71.128649","id":3664674,"name":"CVS Pharmacy # 1239","phone":"978-686-3854","web":"http://www.cvs.com","address":"110 Turnpike St.","country":"United States of America","city":"MA","postal":"1845"},{"lat":"41.864156","lng":"-72.80962","id":3664675,"name":"CVS Pharmacy # 1242","phone":"860-651-1438","web":"http://www.cvs.com","address":"714 Hopmeadow St, Dracut Mall","country":"United States of America","city":"CT","postal":"6070"},{"lat":"41.507594","lng":"-72.981024","id":3664676,"name":"CVS Pharmacy # 1244","phone":"203-758-3782","web":"http://www.cvs.com","address":"26 Waterbury Rd.","country":"United States of America","city":"CT","postal":"6712"},{"lat":"36.121851","lng":"-78.686124","id":3664677,"name":"CVS Pharmacy # 1246","phone":"919-528-4709","web":"http://www.cvs.com","address":"612 N. Main St.","country":"United States of America","city":"NC","postal":"27522"},{"lat":"42.100362","lng":"-71.034764","id":3664678,"name":"CVS Pharmacy # 1248","phone":"508-559-6708","web":"http://www.cvs.com","address":"240 Oak Street","country":"United States of America","city":"MA","postal":"2301"},{"lat":"42.066512","lng":"-70.86925","id":3664679,"name":"CVS Pharmacy # 1249","phone":"617-293-7797","web":"http://www.cvs.com","address":"471 Liberty Street","country":"United States of America","city":"MA","postal":"2341"},{"lat":"42.073931","lng":"-71.041733","id":3664680,"name":"CVS Pharmacy # 1250","phone":"508-586-7988","web":"http://www.cvs.com","address":"555 Belmont Street","country":"United States of America","city":"MA","postal":"2301"},{"lat":"42.127829","lng":"-71.009574","id":3664681,"name":"CVS Pharmacy # 1251","phone":"781-767-0555","web":"http://www.cvs.com","address":"842 South Franklin Street","country":"United States of America","city":"MA","postal":"2343"},{"lat":"42.02667","lng":"-70.959554","id":3664682,"name":"CVS Pharmacy # 1257","phone":"508-378-9581","web":"http://www.cvs.com","address":"225 Bedford Street","country":"United States of America","city":"MA","postal":"2333"},{"lat":"28.624409","lng":"-81.315242","id":3664683,"name":"CVS Pharmacy # 1261","phone":"407-657-7960","web":"http://www.cvs.com","address":"1510 Semoran Blvd","country":"United States of America","city":"FL","postal":"32792"},{"lat":"43.091471","lng":"-88.006514","id":3664684,"name":"CVS Pharmacy # 1267","phone":"414-466-4875","web":"http://www.cvs.com","address":"7550 W. Perkins Place","country":"United States of America","city":"WI","postal":"53216"},{"lat":"42.26225","lng":"-71.799215","id":3664685,"name":"CVS Pharmacy # 127","phone":"508-752-6001","web":"http://www.cvs.com","address":"110 Front St., Suite #102","country":"United States of America","city":"MA","postal":"1608"},{"lat":"42.239691","lng":"-71.747037","id":3664686,"name":"CVS Pharmacy # 1273","phone":"508-793-0918","web":"http://www.cvs.com","address":"50 Sw Cutoff","country":"United States of America","city":"MA","postal":"1604"},{"lat":"24.565139","lng":"-81.771359","id":3664687,"name":"CVS Pharmacy # 1274","phone":"305-294-6693","web":"http://www.cvs.com","address":"2790 N Roosevelt Blvd","country":"United States of America","city":"FL","postal":"33040"},{"lat":"41.681278","lng":"-72.94622","id":3664688,"name":"CVS Pharmacy # 1276","phone":"860-584-8729","web":"http://www.cvs.com","address":"81 North St.","country":"United States of America","city":"CT","postal":"6010"},{"lat":"41.278137","lng":"-72.523923","id":3664689,"name":"CVS Pharmacy # 1284","phone":"203-664-9335","web":"http://www.cvs.com","address":"14 East Main Street","country":"United States of America","city":"CT","postal":"6413"},{"lat":"40.168375","lng":"-79.577951","id":3664690,"name":"CVS Pharmacy # 1286","phone":"315-986-3440","web":"http://www.cvs.com","address":"1215 Route 31","country":"United States of America","city":"New York","postal":"14502"},{"lat":"43.909005","lng":"-69.928136","id":3664691,"name":"CVS Pharmacy # 1288","phone":"207-729-0414","web":"http://www.cvs.com","address":"147 Bath Rd, Rte 24, Merrymeeting Plz","country":"United States of America","city":"ME","postal":"4011"},{"lat":"40.87829","lng":"-74.056978","id":3664692,"name":"CVS Pharmacy # 129","phone":"201-525-0993","web":"http://www.cvs.com","address":"101 Polifly Rd, Polifly Plz","country":"United States of America","city":"NJ","postal":"7601"},{"lat":"42.766127","lng":"-71.214709","id":3664693,"name":"CVS Pharmacy # 1290","phone":"603-893-4745","web":"http://www.cvs.com","address":"99 Rockingham Park Blvd, The Mall #E-171","country":"United States of America","city":"NH","postal":"3079"},{"lat":"42.137561","lng":"-72.518929","id":3664694,"name":"CVS Pharmacy # 1291","phone":"413-783-0125","web":"http://www.cvs.com","address":"770 Boston Rd.","country":"United States of America","city":"MA","postal":"1119"},{"lat":"28.343484","lng":"-82.186691","id":3664695,"name":"CVS Pharmacy # 1293","phone":"352-567-5656","web":"http://www.cvs.com","address":"12804 Us Hwy 301","country":"United States of America","city":"FL","postal":"33525"},{"lat":"39.956459","lng":"-75.321435","id":3664696,"name":"CVS Pharmacy # 1296","phone":"610-623-1464","web":"http://www.cvs.com","address":"5001 Township Line Road","country":"United States of America","city":"PA","postal":"19026"},{"lat":"36.714562","lng":"-121.624792","id":3664697,"name":"CVS Pharmacy # 1300","phone":"831-443-0702","web":"http://www.cvs.com","address":"662 E Boronda Rd","country":"United States of America","city":"CA","postal":"93906"},{"lat":"26.165429","lng":"-80.223137","id":3664698,"name":"CVS Pharmacy # 1302","phone":"954-735-4628","web":"http://www.cvs.com","address":"5501 W. Oakland Park Blvd.","country":"United States of America","city":"FL","postal":"33313"},{"lat":"45.169291","lng":"-93.266925","id":3664699,"name":"CVS Pharmacy # 1303","phone":"763-755-6316","web":"http://www.cvs.com","address":"10930 University Ave., Nw","country":"United States of America","city":"MN","postal":"55448"},{"lat":"42.596261","lng":"-70.993969","id":3664700,"name":"CVS Pharmacy # 1306","phone":"978-774-1061","web":"http://www.cvs.com","address":"220 Maple St.","country":"United States of America","city":"MA","postal":"1949"},{"lat":"40.264633","lng":"-75.626754","id":3664701,"name":"CVS Pharmacy # 1307","phone":"610-326-8098","web":"http://www.cvs.com","address":"1300 N. Charlotte Street","country":"United States of America","city":"PA","postal":"19464"},{"lat":"39.357048","lng":"-78.039193","id":3664702,"name":"CVS Pharmacy # 1308","phone":"304-229-4318","web":"http://www.cvs.com","address":"46 Middleway Pike","country":"United States of America","city":"WV","postal":"25428"},